id;name;postal_code;commune;numero;voie;lieu_dit;code_insee;siret;activite;contact_url;site_internet;longitude;latitude;transport_station_presence;stationnement_presence;stationnement_pmr;stationnement_ext_presence;stationnement_ext_pmr;cheminement_ext_presence;cheminement_ext_terrain_stable;cheminement_ext_plain_pied;cheminement_ext_ascenseur;cheminement_ext_nombre_marches;cheminement_ext_reperage_marches;cheminement_ext_sens_marches;cheminement_ext_main_courante;cheminement_ext_rampe;cheminement_ext_pente_presence;cheminement_ext_pente_degre_difficulte;cheminement_ext_pente_longueur;cheminement_ext_devers;cheminement_ext_bande_guidage;cheminement_ext_retrecissement;entree_reperage;entree_vitree;entree_vitree_vitrophanie;entree_plain_pied;entree_ascenseur;entree_marches;entree_marches_reperage;entree_marches_main_courante;entree_marches_rampe;entree_marches_sens;entree_dispositif_appel;entree_dispositif_appel_type;entree_balise_sonore;entree_aide_humaine;entree_largeur_mini;entree_pmr;entree_porte_presence;entree_porte_manoeuvre;entree_porte_type;accueil_visibilite;accueil_personnels;accueil_equipements_malentendants_presence;accueil_equipements_malentendants;accueil_cheminement_plain_pied;accueil_cheminement_ascenseur;accueil_cheminement_nombre_marches;accueil_cheminement_reperage_marches;accueil_cheminement_main_courante;accueil_cheminement_rampe;accueil_cheminement_sens_marches;accueil_retrecissement;sanitaires_presence;sanitaires_adaptes;labels;labels_familles_handicap;registre_url;conformite
1718;Bibliothèque médiathèque;56100;Lorient;4;Place François Mitterrand;;56121;Non Renseigné;Bibliothèque médiathèque;Non Renseigné;Non Renseigné;-3.3658667982809809;47.7546687886187797;True;False;False;True;True;True;True;True;;;;;;;;;;;;;False;True;True;False;False;False;False;FAUX;False;False;False;;;;2;;True;Porte coulissante;Automatique;False;Non Renseigné;True;Non Renseigné;False;False;;;;;;;False;False;dpt;moteur;NR;True
2645;Aire de camping-car avec services de Ploemeur;56270;Ploemeur;11;Rue Louis Lessart;;56162;Non Renseigné;Camping caravaning;Non Renseigné;Non Renseigné;-3.43101040106121;47.7379139021418;True;False;False;True;False;True;False;True;;;;;;;;;;;;;False;True;True;False;False;False;False;FAUX;False;False;False;;;;;;False;;;False;Non Renseigné;True;Non Renseigné;False;False;;;;;;;False;False;dpt;moteur;NR;False
3172;Concessionnaire automobile;56270;Ploemeur;9013;Rue Jean Moulin;;56162;Non Renseigné;Commerce;Non Renseigné;Non Renseigné;-3.41783899822727;47.7326687072226;False;False;False;True;False;True;False;True;;;;;;;;;;;;;False;True;True;False;False;False;False;FAUX;False;False;False;;;;;;False;;;False;Non Renseigné;True;Non Renseigné;False;False;;;;;;;False;False;dpt;moteur;NR;False
3219;Constructeur de piscine;56530;Quéven;6715;Rue Lavoisier;Z.A.C   LE   MOURILLON;56185;Non Renseigné;Entreprise;Non Renseigné;Non Renseigné;-3.41551157100411;47.7789651073328;False;False;False;True;False;True;False;True;;;;;;;;;;;;;False;True;True;False;False;False;False;FAUX;False;False;False;;;;;;False;;;False;Non Renseigné;True;Non Renseigné;False;False;;;;;;;False;False;dpt;moteur;NR;False
3228;Ambulancier;56700;Hennebont;44;Rue Maréchal Joffre;;56083;Non Renseigné;Service ou aide à domicile;Non Renseigné;Non Renseigné;-3.27448462807467;47.8074185303632;True;False;False;True;False;True;False;True;;;;;;;;;;;;;False;True;True;False;False;False;False;FAUX;False;False;False;;;;;;False;;;False;Non Renseigné;True;Non Renseigné;False;False;;;;;;;False;False;dpt;moteur;NR;False
3576;Garage;56290;Port-Louis;2;Rue de la Digue;;56181;Non Renseigné;Commerce;Non Renseigné;Non Renseigné;-3.34847044779507;47.7087887751973;False;False;False;True;False;True;False;True;;;;;;;;;;;;;False;True;True;False;False;False;False;FAUX;False;False;False;;;;;;False;;;False;Non Renseigné;True;Non Renseigné;False;False;;;;;;;False;False;dpt;moteur;NR;False
2291;Photographe;56700;Hennebont;4;Rue Nationale;;56083;Non Renseigné;Commerce;Non Renseigné;Non Renseigné;-3.27454946012434;47.8058930194303;True;False;False;True;False;True;False;True;;;;;;;;;;;;;False;True;True;False;False;False;False;FAUX;False;False;False;;;;;;False;;;False;Non Renseigné;True;Non Renseigné;False;False;;;;;;;False;False;dpt;moteur;NR;True
3818;Cheminées Nicolas;56600;Lanester;70;Avenue Ambroise Croizat;;56098;Non Renseigné;Commerce;Non Renseigné;Non Renseigné;-3.3469083086445317;47.773813928513434;True;False;False;True;False;True;False;True;;;;;;;;;;;;;False;True;True;False;False;False;False;FAUX;False;False;False;;;;;;False;;;False;Non Renseigné;True;Non Renseigné;False;False;;;;;;;False;False;dpt;moteur;NR;False
3185;Laboratoire d'analyses médicales;56240;Plouay;1;Rue de Kerveline;;56166;Non Renseigné;Profession libérale de santé;Non Renseigné;Non Renseigné;-3.33069169174953;47.9178993906425;False;False;False;True;False;True;False;True;;;;;;;;;;;;;False;True;True;False;False;False;False;FAUX;False;False;False;;;;;;False;;;False;Non Renseigné;True;Non Renseigné;False;False;;;;;;;False;False;dpt;moteur;NR;False
2867;Ophtalmologiste;56100;Lorient;14;Rue Victor Massé;;56121;Non Renseigné;Profession libérale de santé;Non Renseigné;Non Renseigné;-3.36143988007779;47.7509309608124;True;False;False;True;True;True;False;True;;;;;;;;;;;;;False;True;True;False;False;False;False;FAUX;False;False;False;;;;;;False;;;False;Non Renseigné;True;Non Renseigné;False;False;;;;;;;False;False;dpt;moteur;NR;True
1438;Eglise Sainte-Radegonde;56670;Riantec;11;Place de la Liberté;LE BOURG;56193;Non Renseigné;Centre religieux;Non Renseigné;Non Renseigné;-3.30941709667448;47.7102284817001;True;False;False;True;False;True;False;True;;;;;;;;;;;;;False;True;True;False;False;False;False;FAUX;False;False;False;;;;;;False;;;False;Non Renseigné;True;Non Renseigné;False;False;;;;;;;False;False;dpt;moteur;NR;True
2756;Dentiste;56520;Guidel;13;Place Louis le Montagner;;56078;Non Renseigné;Profession libérale de santé;Non Renseigné;Non Renseigné;-3.49404959320057;47.7924922717382;True;False;False;True;False;True;False;True;;;;;;;;;;;;;False;True;True;False;False;False;False;FAUX;False;False;False;;;;;;False;;;False;Non Renseigné;True;Non Renseigné;False;False;;;;;;;False;False;dpt;moteur;NR;True
1367;Le Brise Lame;56680;Gâvres;18;Avenue des Sardiniers;;56062;Non Renseigné;Restaurant;Non Renseigné;Non Renseigné;-3.35171032165717;47.6976748394359;True;False;False;True;False;True;False;True;;;;;;;;;;;;;False;True;True;False;False;False;False;FAUX;False;False;False;;;;;;False;;;False;Non Renseigné;True;Non Renseigné;False;False;;;;;;;False;False;dpt;moteur;NR;True
1770;Le Bistrot à la Française;56100;Lorient;9002;Boulevard Pierre Mendès-France;;56121;Non Renseigné;Restaurant;Non Renseigné;Non Renseigné;-3.3946939985708533;47.76473380596918;True;False;False;True;False;True;False;True;;;;;;;;;;;;;False;True;True;False;False;False;False;FAUX;False;False;False;;;;;;False;;;False;Non Renseigné;True;Non Renseigné;False;False;;;;;;;False;False;dpt;moteur;NR;True
2303;Maison des associations;56700;Hennebont;13;Rue de l'Abbé Pierre;;56083;Non Renseigné;Association;Non Renseigné;Non Renseigné;-3.27075527953156;47.8073057979791;True;False;False;True;False;True;False;True;;;;;;;;;;;;;False;True;True;False;False;False;False;FAUX;False;False;False;;;;;;False;;;False;Non Renseigné;True;Non Renseigné;False;False;;;;;;;False;False;dpt;moteur;NR;True
2716;Pompes funèbres;56100;Lorient;55;Rue de Carnel;KERPONT;56121;Non Renseigné;Entreprise;Non Renseigné;Non Renseigné;-3.36771302563527;47.7372635911642;True;False;False;True;True;True;False;True;;;;;;;;;;;;;False;True;True;False;False;False;False;FAUX;False;False;False;;;;;;False;;;False;Non Renseigné;True;Non Renseigné;False;False;;;;;;;False;False;dpt;moteur;NR;False
3329;Salon de beauté;56290;Port-Louis;7;Grande Rue;;56181;Non Renseigné;Commerce;Non Renseigné;Non Renseigné;-3.35369155709965;47.7072630727797;True;False;False;True;False;True;False;True;;;;;;;;;;;;;False;True;True;False;False;False;False;FAUX;False;False;False;;;;;;False;;;False;Non Renseigné;True;Non Renseigné;False;False;;;;;;;False;False;dpt;moteur;NR;False
2665;Laboratoire d'analyses médicales;56700;Hennebont;6;Place Maréchal Foch;;56083;Non Renseigné;Profession libérale de santé;Non Renseigné;Non Renseigné;-3.27688701219645;47.8054669800366;True;False;False;True;False;True;False;True;;;;;;;;;;;;;False;True;True;False;False;False;False;FAUX;False;False;False;;;;;;False;;;False;Non Renseigné;True;Non Renseigné;False;False;;;;;;;False;False;dpt;moteur;NR;True
3557;Auto-école;56440;Languidic;3;Rue de la Libération;LE BOURG;56101;Non Renseigné;Commerce;Non Renseigné;Non Renseigné;-3.15675261340108;47.8338740959264;True;False;False;True;False;True;False;True;;;;;;;;;;;;;False;True;True;False;False;False;False;FAUX;False;False;False;;;;;;False;;;False;Non Renseigné;True;Non Renseigné;False;False;;;;;;;False;False;dpt;moteur;NR;False
2559;Pharmacie;56310;Bubry;21;Rue des Tilleuls;LE BOURG;56026;Non Renseigné;Commerce;Non Renseigné;Non Renseigné;-3.17265289452647;47.9630163576526;True;False;False;True;False;True;False;True;;;;;;;;;;;;;False;True;True;False;False;False;False;FAUX;False;False;False;;;;;;False;;;False;Non Renseigné;True;Non Renseigné;False;False;;;;;;;False;False;dpt;moteur;NR;False
2734;Supérette;56240;Plouay;12;Place de l'Église;;56166;Non Renseigné;Commerce;Non Renseigné;Non Renseigné;-3.33497297702383;47.9148312776588;True;False;False;True;False;True;False;True;;;;;;;;;;;;;False;True;True;False;False;False;False;FAUX;False;False;False;;;;;;False;;;False;Non Renseigné;True;Non Renseigné;False;False;;;;;;;False;False;dpt;moteur;NR;True
2845;Dentiste;56100;Lorient;15;Rue de Belgique;;56121;Non Renseigné;Profession libérale de santé;Non Renseigné;Non Renseigné;-3.37651154663617;47.7584029211867;True;False;False;True;True;True;False;True;;;;;;;;;;;;;False;True;True;False;False;False;False;FAUX;False;False;False;;;;;;False;;;False;Non Renseigné;True;Non Renseigné;False;False;;;;;;;False;False;dpt;moteur;NR;True
2085;Ecole Saint-Aubin;56620;Pont-Scorff;1;Rue Docteur Rialland;;56179;Non Renseigné;Groupe scolaire;Non Renseigné;Non Renseigné;-3.40334437781393;47.8362185437118;True;False;False;True;False;True;False;True;;;;;;;;;;;;;False;True;True;False;False;False;False;FAUX;False;False;False;;;;;;False;;;False;Non Renseigné;True;Non Renseigné;False;False;;;;;;;False;False;dpt;moteur;NR;True
3726;Restaurant La Vallée Verte;56650;Inzinzac-Lochrist;5259;Route Départementale n°102;ER  HAREN;56090;Non Renseigné;Restaurant;Non Renseigné;Non Renseigné;-3.2006397682165;47.865752071652;True;False;False;True;False;True;False;True;;;;;;;;;;;;;False;True;True;False;False;False;False;FAUX;False;False;False;;;;;;False;;;False;Non Renseigné;True;Non Renseigné;False;False;;;;;;;False;False;dpt;moteur;NR;False
2282;Ecole maternelle Paul Eluard;56700;Hennebont;9003;Rue Emile Zola;;56083;Non Renseigné;École maternelle;Non Renseigné;Non Renseigné;-3.27397829080045;47.8026880262934;False;False;False;True;False;True;False;True;;;;;;;;;;;;;False;True;True;False;False;False;False;FAUX;False;False;False;;;;;;False;;;False;Non Renseigné;True;Non Renseigné;False;False;;;;;;;False;False;dpt;moteur;NR;True
3164;Caisse d’Epargne;56270;Ploemeur;9007;Lieu-dit Mail République;;56162;Non Renseigné;Banques, caisses d'épargne;Non Renseigné;Non Renseigné;-3.42824707354855;47.7336999810326;True;False;False;True;False;True;False;True;;;;;;;;;;;;;False;True;True;False;False;False;False;FAUX;False;False;False;;;;;;False;;;False;Non Renseigné;True;Non Renseigné;False;False;;;;;;;False;False;dpt;moteur;NR;False
3437;CMB;56700;Hennebont;11;Place Maréchal Foch;;56083;Non Renseigné;Banques, caisses d'épargne;Non Renseigné;Non Renseigné;-3.27553613590304;47.8058148366658;True;False;False;True;False;True;False;True;;;;;;;;;;;;;False;True;True;False;False;False;False;FAUX;False;False;False;;;;;;False;;;False;Non Renseigné;True;Non Renseigné;False;False;;;;;;;False;False;dpt;moteur;NR;False
1176;Ecole élémentaire Rene-Guy Cadou;56270;Ploemeur;6;Allée des Glycines;;56162;Non Renseigné;École élémentaire;Non Renseigné;Non Renseigné;-3.49696627367645;47.7345381060646;True;False;False;True;False;True;False;True;;;;;;;;;;;;;False;True;True;False;False;False;False;FAUX;False;False;False;;;;;;False;;;False;Non Renseigné;True;Non Renseigné;False;False;;;;;;;False;False;dpt;moteur;NR;False
2880;Prêt-à-porter;56100;Lorient;3;Rue des Fontaines;;56121;Non Renseigné;Commerce;Non Renseigné;Non Renseigné;-3.36114525381457;47.7490200083749;True;False;False;True;True;True;False;True;;;;;;;;;;;;;False;True;True;False;False;False;False;FAUX;False;False;False;;;;;;False;;;False;Non Renseigné;True;Non Renseigné;False;False;;;;;;;False;False;dpt;moteur;NR;True
2492;Déchèterie ;56440;Languidic;468;Rue de Kerlavarec;ER   HOUEREM;56101;Non Renseigné;Déchèterie;Non Renseigné;Non Renseigné;-3.16960516529553;47.8376423841075;False;False;False;True;False;True;False;True;;;;;;;;;;;;;False;True;True;False;False;False;False;FAUX;False;False;False;;;;;;False;;;False;Non Renseigné;True;Non Renseigné;False;False;;;;;;;False;False;dpt;moteur;NR;False
3038;Prêt-à-porter;56600;Lanester;245;Rue Andreï Sakharov;;56098;Non Renseigné;Commerce;Non Renseigné;Non Renseigné;-3.3411870341012;47.7769100187317;True;False;False;True;False;True;False;True;;;;;;;;;;;;;False;True;True;False;False;False;False;FAUX;False;False;False;;;;;;False;;;False;Non Renseigné;True;Non Renseigné;False;False;;;;;;;False;False;dpt;moteur;NR;False
1440;Mairie;56670;Riantec;9999;Place de la Mairie;;56193;Non Renseigné;Mairie;Non Renseigné;Non Renseigné;-3.31008366432615;47.7119150735546;True;False;False;True;False;True;False;True;;;;;;;;;;;;;False;True;True;False;False;False;False;FAUX;False;False;False;;;;;;False;;;False;Non Renseigné;True;Non Renseigné;False;False;;;;;;;False;False;dpt;moteur;NR;True
1635;Pôle Enfance République;56100;Lorient;1;Rue François le Brise;;56121;Non Renseigné;Crèche;Non Renseigné;Non Renseigné;-3.36325045561596;47.7443108716827;False;False;False;True;True;True;False;True;;;;;;;;;;;;;False;True;True;False;False;False;False;FAUX;False;False;False;;;;;;False;;;False;Non Renseigné;True;Non Renseigné;False;False;;;;;;;False;False;dpt;moteur;NR;True
3559;Crédit Agricole;56440;Languidic;11;Rue de la Mairie;;56101;Non Renseigné;Banques, caisses d'épargne;Non Renseigné;Non Renseigné;-3.15959681518169;47.8339486536726;True;False;False;True;False;True;False;True;;;;;;;;;;;;;False;True;True;False;False;False;False;FAUX;False;False;False;;;;;;False;;;False;Non Renseigné;True;Non Renseigné;False;False;;;;;;;False;False;dpt;moteur;NR;False
2161;Toilettes publiques;56850;Caudan;6;Rue de la Libération;SAINT NICODEME;56036;Non Renseigné;Toilettes publiques;Non Renseigné;Non Renseigné;-3.3410636002905;47.8113233769916;True;False;False;True;False;True;False;True;;;;;;;;;;;;;False;True;True;False;False;False;False;FAUX;False;False;False;;;;;;False;;;False;Non Renseigné;True;Non Renseigné;False;False;;;;;;;False;False;dpt;moteur;NR;True
1905;Toilettes publiques;56600;Lanester;9001;Parc du Plessis;LANN GAZEC;56098;Non Renseigné;Toilettes publiques;Non Renseigné;Non Renseigné;-3.33670764015476;47.7602863703301;True;False;False;True;False;True;False;True;;;;;;;;;;;;;False;True;True;False;False;False;False;FAUX;False;False;False;;;;;;False;;;False;Non Renseigné;True;Non Renseigné;False;False;;;;;;;False;False;dpt;moteur;NR;False
2252;Cimetière de Saint-Caradec;56700;Hennebont;45;Rue Saint-Caradec;;56083;Non Renseigné;Cimetière;Non Renseigné;Non Renseigné;-3.28347615712536;47.8064534647297;False;False;False;True;False;True;False;True;;;;;;;;;;;;;False;True;True;False;False;False;False;FAUX;False;False;False;;;;;;False;;;False;Non Renseigné;True;Non Renseigné;False;False;;;;;;;False;False;dpt;moteur;NR;True
3787;Le Bec Immobilier;56600;Lanester;197;Rue Jean Jaurès;;56098;Non Renseigné;Commerce;Non Renseigné;Non Renseigné;-3.3519940456733215;47.76914453970162;True;False;False;True;False;True;False;True;;;;;;;;;;;;;False;True;True;False;False;False;False;FAUX;False;False;False;;;;;;False;;;False;Non Renseigné;True;Non Renseigné;False;False;;;;;;;False;False;dpt;moteur;NR;False
3798;Technitoit Lorient;56600;Lanester;59;Avenue Ambroise Croizat;;56098;Non Renseigné;Commerce;Non Renseigné;Non Renseigné;-3.347065224440943;47.774281560510204;True;False;False;True;False;True;False;True;;;;;;;;;;;;;False;True;True;False;False;False;False;FAUX;False;False;False;;;;;;False;;;False;Non Renseigné;True;Non Renseigné;False;False;;;;;;;False;False;dpt;moteur;NR;False
3790;Cocoon Literie;56600;Lanester;76;Avenue Ambroise Croizat;;56098;Non Renseigné;Commerce;Non Renseigné;Non Renseigné;-3.3462695574475365;47.77477676542145;True;False;False;True;False;True;False;True;;;;;;;;;;;;;False;True;True;False;False;False;False;FAUX;False;False;False;;;;;;False;;;False;Non Renseigné;True;Non Renseigné;False;False;;;;;;;False;False;dpt;moteur;NR;False
3423;Prêt-à-porter;56590;Groix;10;Rue du Général de Gaulle;;56069;Non Renseigné;Commerce;Non Renseigné;Non Renseigné;-3.4540855648493;47.6395182751767;True;False;False;True;False;True;False;True;;;;;;;;;;;;;False;True;True;False;False;False;False;FAUX;False;False;False;;;;;;False;;;False;Non Renseigné;True;Non Renseigné;False;False;;;;;;;False;False;dpt;moteur;NR;False
2548;Ecole Teir Dervenn;56310;Bubry;5846;Route de Bubry Saint-Yves;SAINT YVES;56026;Non Renseigné;Groupe scolaire;Non Renseigné;Non Renseigné;-3.19316232500237;47.9273088533874;True;False;False;True;False;True;False;True;;;;;;;;;;;;;False;True;True;False;False;False;False;FAUX;False;False;False;;;;;;False;;;False;Non Renseigné;True;Non Renseigné;False;False;;;;;;;False;False;dpt;moteur;NR;True
1813;Ecole Anatole France;56530;Quéven;9999;Rue Anatole France;;56185;Non Renseigné;Groupe scolaire;Non Renseigné;Non Renseigné;-3.41349738708663;47.7892987014306;True;False;False;True;False;True;False;True;;;;;;;;;;;;;False;True;True;False;False;False;False;FAUX;False;False;False;;;;;;False;;;False;Non Renseigné;True;Non Renseigné;False;False;;;;;;;False;False;dpt;moteur;NR;True
1441;Ecole Saint-Joseph;56670;Riantec;1;Rue Léon Breurec;;56193;Non Renseigné;Groupe scolaire;Non Renseigné;Non Renseigné;-3.30937438849396;47.7139374544662;True;False;False;True;False;True;False;True;;;;;;;;;;;;;False;True;True;False;False;False;False;FAUX;False;False;False;;;;;;False;;;False;Non Renseigné;True;Non Renseigné;False;False;;;;;;;False;False;dpt;moteur;NR;False
1163;Bureau d'informations touristiques;56270;Ploemeur;2;Route du Pérello;;56162;Non Renseigné;Office du tourisme;Non Renseigné;Non Renseigné;-3.43228078529177;47.7019404416799;True;False;False;True;False;True;False;True;;;;;;;;;;;;;False;True;True;False;False;False;False;FAUX;False;False;False;;;;;;False;;;False;Non Renseigné;True;Non Renseigné;False;False;;;;;;;False;False;dpt;moteur;NR;True
2545;Chapelle Saint-Yves;56310;Bubry;5825;Rue du Cimetière;SAINT YVES;56026;Non Renseigné;Centre religieux;Non Renseigné;Non Renseigné;-3.19335159642177;47.9244019048593;True;False;False;True;False;True;False;True;;;;;;;;;;;;;False;True;True;False;False;False;False;FAUX;False;False;False;;;;;;False;;;False;Non Renseigné;True;Non Renseigné;False;False;;;;;;;False;False;dpt;moteur;NR;False
2018;Marchand de meubles;56600;Lanester;9027;Avenue François Mitterrand;LANN GAZEC;56098;Non Renseigné;Commerce;Non Renseigné;Non Renseigné;-3.32980277636011;47.7660328402718;True;False;False;True;False;True;False;True;;;;;;;;;;;;;False;True;True;False;False;False;False;FAUX;False;False;False;;;;;;False;;;False;Non Renseigné;True;Non Renseigné;False;False;;;;;;;False;False;dpt;moteur;NR;True
3630;Podologue;56530;Quéven;4;Rue de la Gare;;56185;Non Renseigné;Profession libérale de santé;Non Renseigné;Non Renseigné;-3.41526833029151;47.7892678584422;True;False;False;True;False;True;False;True;;;;;;;;;;;;;False;True;True;False;False;False;False;FAUX;False;False;False;;;;;;False;;;False;Non Renseigné;True;Non Renseigné;False;False;;;;;;;False;False;dpt;moteur;NR;False
3144;Ostéopathe;56100;Lorient;12;Impasse Royer Dubail;;56121;Non Renseigné;Profession libérale de santé;Non Renseigné;Non Renseigné;-3.36703544383209;47.7619533238843;True;False;False;True;False;True;False;True;;;;;;;;;;;;;False;True;True;False;False;False;False;FAUX;False;False;False;;;;;;False;;;False;Non Renseigné;True;Non Renseigné;False;False;;;;;;;False;False;dpt;moteur;NR;False
1823;Ecole maternelle Pablo Neruda;56100;Lorient;11;Rue Raymond Quéro;;56121;Non Renseigné;École maternelle;Non Renseigné;Non Renseigné;-3.38576945086671;47.7676197695228;True;False;False;True;True;True;False;True;;;;;;;;;;;;;False;True;True;False;False;False;False;FAUX;False;False;False;;;;;;False;;;False;Non Renseigné;True;Non Renseigné;False;False;;;;;;;False;False;dpt;moteur;NR;True
2487;Cimetière;56240;Lanvaudan;31;Rue Sainte-Anne;;56104;Non Renseigné;Cimetière;Non Renseigné;Non Renseigné;-3.25770158326898;47.9005785799892;True;False;False;True;False;True;False;True;;;;;;;;;;;;;False;True;True;False;False;False;False;FAUX;False;False;False;;;;;;False;;;False;Non Renseigné;True;Non Renseigné;False;False;;;;;;;False;False;dpt;moteur;NR;False
3372;Librairie;56590;Groix;15;Rue du Presbytère;;56069;Non Renseigné;Commerce;Non Renseigné;Non Renseigné;-3.45611346314083;47.6388999420049;True;False;False;True;False;True;False;True;;;;;;;;;;;;;False;True;True;False;False;False;False;FAUX;False;False;False;;;;;;False;;;False;Non Renseigné;True;Non Renseigné;False;False;;;;;;;False;False;dpt;moteur;NR;False
1234;Ecole maternelle La Châtaigneraie;56270;Ploemeur;33;Rue Blaise Pascal;;56162;Non Renseigné;École maternelle;Non Renseigné;Non Renseigné;-3.44133958775483;47.7340940735499;False;False;False;True;False;True;False;True;;;;;;;;;;;;;False;True;True;False;False;False;False;FAUX;False;False;False;;;;;;False;;;False;Non Renseigné;True;Non Renseigné;False;False;;;;;;;False;False;dpt;moteur;NR;False
1648;Magasin de téléphonie mobile, internet;56100;Lorient;3;Place Aristide Briand;;56121;Non Renseigné;Commerce;Non Renseigné;Non Renseigné;-3.3642918999909512;47.74805117266543;True;False;False;True;True;True;False;True;;;;;;;;;;;;;False;True;True;False;False;False;False;FAUX;False;False;False;;;;;;False;;;False;Non Renseigné;True;Non Renseigné;False;False;;;;;;;False;False;dpt;moteur;NR;True
3424;Hôtel du pêcheur;56590;Groix;58;Rue du Général de Gaulle;;56069;Non Renseigné;Hôtel;Non Renseigné;Non Renseigné;-3.44854528930437;47.6424913996759;True;False;False;True;False;True;False;True;;;;;;;;;;;;;False;True;True;False;False;False;False;FAUX;False;False;False;;;;;;False;;;False;Non Renseigné;True;Non Renseigné;False;False;;;;;;;False;False;dpt;moteur;NR;False
1347;Le Colibri;56260;Larmor-Plage;6;Boulevard de Toulhars;;56107;Non Renseigné;Salle des fêtes;Non Renseigné;Non Renseigné;-3.3817535944259;47.7068217343551;False;False;False;True;False;True;False;True;;;;;;;;;;;;;False;True;True;False;False;False;False;FAUX;False;False;False;;;;;;False;;;False;Non Renseigné;True;Non Renseigné;False;False;;;;;;;False;False;dpt;moteur;NR;True
3412;La Malicette;56590;Groix;5977;Lieu-dit Locqueltas;MEZ LOCQUELTAS;56069;Non Renseigné;Restaurant;Non Renseigné;Non Renseigné;-3.44996753666136;47.6268263941515;True;False;False;True;False;True;False;True;;;;;;;;;;;;;False;True;True;False;False;False;False;FAUX;False;False;False;;;;;;False;;;False;Non Renseigné;True;Non Renseigné;False;False;;;;;;;False;False;dpt;moteur;NR;False
2010;Salle René Yhuel;56600;Lanester;73;Avenue Kesler-Devillers;;56098;Non Renseigné;Salle multisports;Non Renseigné;Non Renseigné;-3.33974122517721;47.7676831573909;True;False;False;True;False;True;False;True;;;;;;;;;;;;;False;True;True;False;False;False;False;FAUX;False;False;False;;;;;;False;;;False;Non Renseigné;True;Non Renseigné;False;False;;;;;;;False;False;dpt;moteur;NR;True
3250;Audioprothésiste;56240;Plouay;9;Rue du Général de Gaulle;;56166;Non Renseigné;Commerce;Non Renseigné;Non Renseigné;-3.3356643337564;47.9154338149588;True;False;False;True;False;True;False;True;;;;;;;;;;;;;False;True;True;False;False;False;False;FAUX;False;False;False;;;;;;False;;;False;Non Renseigné;True;Non Renseigné;False;False;;;;;;;False;False;dpt;moteur;NR;False
3599;Concessionnaire automobile;56850;Caudan;428;Rue Pierre Landais;;56036;Non Renseigné;Commerce;Non Renseigné;Non Renseigné;-3.33410110728721;47.7861311416228;True;False;False;True;False;True;False;True;;;;;;;;;;;;;False;True;True;False;False;False;False;FAUX;False;False;False;;;;;;False;;;False;Non Renseigné;True;Non Renseigné;False;False;;;;;;;False;False;dpt;moteur;NR;False
2065;ALSH Les Lucioles;56530;Gestel;3;Allée du Lain;;56063;Non Renseigné;Centre de loisirs;Non Renseigné;Non Renseigné;-3.43891754829584;47.8035295666641;False;False;False;True;False;True;False;True;;;;;;;;;;;;;False;True;True;False;False;False;False;FAUX;False;False;False;;;;;;False;;;False;Non Renseigné;True;Non Renseigné;False;False;;;;;;;False;False;dpt;moteur;NR;True
1683;Supérette;56100;Lorient;78;Rue du Maréchal Foch;;56121;Non Renseigné;Commerce;Non Renseigné;Non Renseigné;-3.35853819490196;47.748194435635;True;False;False;True;True;True;False;True;;;;;;;;;;;;;False;True;True;False;False;False;False;FAUX;False;False;False;;;;;;False;;;False;Non Renseigné;True;Non Renseigné;False;False;;;;;;;False;False;dpt;moteur;NR;True
3680;Boulangerie pâtisserie;56520;Guidel;3;Rue Joseph Léna;;56078;Non Renseigné;Commerce;Non Renseigné;Non Renseigné;-3.4890048385648;47.7886934825641;True;False;False;True;False;True;False;True;;;;;;;;;;;;;False;True;True;False;False;False;False;FAUX;False;False;False;;;;;;False;;;False;Non Renseigné;True;Non Renseigné;False;False;;;;;;;False;False;dpt;moteur;NR;False
3291;Cave à vin;56240;Plouay;16;Rue de Bécherel;;56166;Non Renseigné;Commerce;Non Renseigné;Non Renseigné;-3.33104059873054;47.9146194265211;True;False;False;True;False;True;False;True;;;;;;;;;;;;;False;True;True;False;False;False;False;FAUX;False;False;False;;;;;;False;;;False;Non Renseigné;True;Non Renseigné;False;False;;;;;;;False;False;dpt;moteur;NR;False
1634;Lycée Saint-Louis;56100;Lorient;1;Rue François le Brise;;56121;Non Renseigné;Lycée;Non Renseigné;Non Renseigné;-3.36366247378654;47.7445930008766;False;False;False;True;True;True;False;True;;;;;;;;;;;;;False;True;True;False;False;False;False;FAUX;False;False;False;;;;;;False;;;False;Non Renseigné;True;Non Renseigné;False;False;;;;;;;False;False;dpt;moteur;NR;True
3047;Médecin généraliste;56600;Lanester;9;Avenue François Mitterrand;LANN GAZEC;56098;Non Renseigné;Profession libérale de santé;Non Renseigné;Non Renseigné;-3.33698192403752;47.7668228173615;True;False;False;True;False;True;False;True;;;;;;;;;;;;;False;True;True;False;False;False;False;FAUX;False;False;False;;;;;;False;;;False;Non Renseigné;True;Non Renseigné;False;False;;;;;;;False;False;dpt;moteur;NR;False
3624;Prêt-à-porter;56530;Quéven;31;Rue Jean Jaurès;;56185;Non Renseigné;Commerce;Non Renseigné;Non Renseigné;-3.41594113072074;47.7879953163167;True;False;False;True;False;True;False;True;;;;;;;;;;;;;False;True;True;False;False;False;False;FAUX;False;False;False;;;;;;False;;;False;Non Renseigné;True;Non Renseigné;False;False;;;;;;;False;False;dpt;moteur;NR;False
3789;Pianos Clavissimo;56600;Lanester;14;Rue Jean Jaurès;;56098;Non Renseigné;Commerce;Non Renseigné;Non Renseigné;-3.3609196723972996;47.76374856322914;True;False;False;True;False;True;False;True;;;;;;;;;;;;;False;True;True;False;False;False;False;FAUX;False;False;False;;;;;;False;;;False;Non Renseigné;True;Non Renseigné;False;False;;;;;;;False;False;dpt;moteur;NR;False
2809;Médecin généraliste;56850;Caudan;27;Avenue de l'Étang;;56036;Non Renseigné;Profession libérale de santé;Non Renseigné;Non Renseigné;-3.34747554487918;47.8109963539645;True;False;False;True;False;True;False;True;;;;;;;;;;;;;False;True;True;False;False;False;False;FAUX;False;False;False;;;;;;False;;;False;Non Renseigné;True;Non Renseigné;False;False;;;;;;;False;False;dpt;moteur;NR;True
3464;Chapelle Saint-Melec;56240;Lanvaudan;5187;Lieu-dit Lomelec;;56104;Non Renseigné;Centre religieux;Non Renseigné;Non Renseigné;-3.2036278122079;47.8940591226992;False;False;False;True;False;True;False;True;;;;;;;;;;;;;False;True;True;False;False;False;False;FAUX;False;False;False;;;;;;False;;;False;Non Renseigné;True;Non Renseigné;False;False;;;;;;;False;False;dpt;moteur;NR;False
3549;Infirmier;56440;Languidic;41;Rue du Commerce;LA  BELLE  VUE;56101;Non Renseigné;Profession libérale de santé;Non Renseigné;Non Renseigné;-3.09019562667308;47.8628945347701;True;False;False;True;False;True;False;True;;;;;;;;;;;;;False;True;True;False;False;False;False;FAUX;False;False;False;;;;;;False;;;False;Non Renseigné;True;Non Renseigné;False;False;;;;;;;False;False;dpt;moteur;NR;False
2794;Les Genêts;56600;Lanester;27;Rue Jean Jaurès;;56098;Non Renseigné;Café, bar, brasserie;Non Renseigné;Non Renseigné;-3.36162265305769;47.7635077486969;True;False;False;True;False;True;False;True;;;;;;;;;;;;;False;True;True;False;False;False;False;FAUX;False;False;False;;;;;;False;;;False;Non Renseigné;True;Non Renseigné;False;False;;;;;;;False;False;dpt;moteur;NR;True
2841;Pharmacie;56100;Lorient;25;Rue de Ploemeur;;56121;Non Renseigné;Commerce;Non Renseigné;Non Renseigné;-3.38988134648293;47.7598594109694;True;False;False;True;True;True;False;True;;;;;;;;;;;;;False;True;True;False;False;False;False;FAUX;False;False;False;;;;;;False;;;False;Non Renseigné;True;Non Renseigné;False;False;;;;;;;False;False;dpt;moteur;NR;True
3631;Marchand de journeaux;56530;Quéven;3;Rue de la Gare;;56185;Non Renseigné;Commerce;Non Renseigné;Non Renseigné;-3.41560330010994;47.7892620411628;True;False;False;True;False;True;False;True;;;;;;;;;;;;;False;True;True;False;False;False;False;FAUX;False;False;False;;;;;;False;;;False;Non Renseigné;True;Non Renseigné;False;False;;;;;;;False;False;dpt;moteur;NR;False
2893;Police municipale;56100;Lorient;1;Passage du Blavet;;56121;Non Renseigné;Services techniques;Non Renseigné;Non Renseigné;-3.3625280403986;47.7483482819234;True;False;False;True;True;True;False;True;;;;;;;;;;;;;False;True;True;False;False;False;False;FAUX;False;False;False;;;;;;False;;;False;Non Renseigné;True;Non Renseigné;False;False;;;;;;;False;False;dpt;moteur;NR;False
2667;Médecin généraliste;56700;Hennebont;1;Rue Moricette;;56083;Non Renseigné;Profession libérale de santé;Non Renseigné;Non Renseigné;-3.27922532128268;47.8052113523695;True;False;False;True;False;True;False;True;;;;;;;;;;;;;False;True;True;False;False;False;False;FAUX;False;False;False;;;;;;False;;;False;Non Renseigné;True;Non Renseigné;False;False;;;;;;;False;False;dpt;moteur;NR;False
1654;Biscuiterie chocolaterie Larnicol;56100;Lorient;6;Rue du Port;;56121;Non Renseigné;Commerce;Non Renseigné;Non Renseigné;-3.36290807578835;47.748133851404;True;False;False;True;True;True;False;True;;;;;;;;;;;;;False;True;True;False;False;False;False;FAUX;False;False;False;;;;;;False;;;False;Non Renseigné;True;Non Renseigné;False;False;;;;;;;False;False;dpt;moteur;NR;True
2434;Chapelle des Sept Douleurs;56700;Hennebont;9;Place de la Résistance;LANN GAZEC;56083;Non Renseigné;Centre religieux;Non Renseigné;Non Renseigné;-3.24759267350973;47.8249445524345;True;False;False;True;False;True;False;True;;;;;;;;;;;;;False;True;True;False;False;False;False;FAUX;False;False;False;;;;;;False;;;False;Non Renseigné;True;Non Renseigné;False;False;;;;;;;False;False;dpt;moteur;NR;False
2464;Médecin généraliste;56240;Inguiniel;26;Rue Louis le Moenic;LE BOURG;56089;Non Renseigné;Profession libérale de santé;Non Renseigné;Non Renseigné;-3.28326740766399;47.9745311251976;False;False;False;True;False;True;False;True;;;;;;;;;;;;;False;True;True;False;False;False;False;FAUX;False;False;False;;;;;;False;;;False;Non Renseigné;True;Non Renseigné;False;False;;;;;;;False;False;dpt;moteur;NR;False
2317;Chapelle Saint-Antoine;56700;Hennebont;36;Rue de Saint-Antoine;;56083;Non Renseigné;Centre religieux;Non Renseigné;Non Renseigné;-3.2567745083231;47.795878528549;False;False;False;True;False;True;False;True;;;;;;;;;;;;;False;True;True;False;False;False;False;FAUX;False;False;False;;;;;;False;;;False;Non Renseigné;True;Non Renseigné;False;False;;;;;;;False;False;dpt;moteur;NR;True
3621;Salon de coiffure;56530;Quéven;19;Rue Jean Jaurès;;56185;Non Renseigné;Commerce;Non Renseigné;Non Renseigné;-3.41598368663885;47.7886085783122;True;False;False;True;False;True;False;True;;;;;;;;;;;;;False;True;True;False;False;False;False;FAUX;False;False;False;;;;;;False;;;False;Non Renseigné;True;Non Renseigné;False;False;;;;;;;False;False;dpt;moteur;NR;False
1643;Toilettes publiques;56100;Lorient;4;Place Jules Ferry;;56121;Non Renseigné;Toilettes publiques;Non Renseigné;Non Renseigné;-3.3649192641954224;47.747502806964384;True;False;False;True;True;True;False;True;;;;;;;;;;;;;False;True;True;False;False;False;False;FAUX;False;False;False;;;;;;False;;;False;Non Renseigné;True;Non Renseigné;False;False;;;;;;;False;False;dpt;moteur;NR;False
1618;Eglise Sainte-Anne d'Arvor;56100;Lorient;3;Place Sainte-Anne d'Arvor;KERGOURGAN;56121;Non Renseigné;Centre religieux;Non Renseigné;Non Renseigné;-3.36544467715354;47.7410935263675;True;False;False;True;True;True;False;True;;;;;;;;;;;;;False;True;True;False;False;False;False;FAUX;False;False;False;;;;;;False;;;False;Non Renseigné;True;Non Renseigné;False;False;;;;;;;False;False;dpt;moteur;NR;True
2513;Point information jeunesse;56440;Languidic;6;Rue de la Mairie;;56101;Non Renseigné;Point information jeunesse;Non Renseigné;Non Renseigné;-3.15889419386193;47.8340430178635;True;False;False;True;False;True;False;True;;;;;;;;;;;;;False;True;True;False;False;False;False;FAUX;False;False;False;;;;;;False;;;False;Non Renseigné;True;Non Renseigné;False;False;;;;;;;False;False;dpt;moteur;NR;False
1494;Faculté des Sciences et Sciences de l'Ingénieur;56100;Lorient;2;Rue le Coat Saint-Haouën;;56121;Non Renseigné;Université ou école supérieure;Non Renseigné;Non Renseigné;-3.39348691656283;47.7471352930867;True;False;False;True;True;True;False;True;;;;;;;;;;;;;False;True;True;False;False;False;False;FAUX;False;False;False;;;;;;False;;;False;Non Renseigné;True;Non Renseigné;False;False;;;;;;;False;False;dpt;moteur;NR;True
1493;ENSIBS;56100;Lorient;17;Boulevard Flandres-Dunkerque 1940;;56121;Non Renseigné;Université ou école supérieure;Non Renseigné;Non Renseigné;-3.39615208955526;47.7477136653064;True;False;False;True;False;True;False;True;;;;;;;;;;;;;False;True;True;False;False;False;False;FAUX;False;False;False;;;;;;False;;;False;Non Renseigné;True;Non Renseigné;False;False;;;;;;;False;False;dpt;moteur;NR;True
2829;Centre courriers et boîtes postales;56700;Hennebont;18;Rue Clément Ader;;56083;Non Renseigné;Entreprise;Non Renseigné;Non Renseigné;-3.28211648189725;47.7974458877965;False;False;False;True;False;True;False;True;;;;;;;;;;;;;False;True;True;False;False;False;False;FAUX;False;False;False;;;;;;False;;;False;Non Renseigné;True;Non Renseigné;False;False;;;;;;;False;False;dpt;moteur;NR;False
1675;Agence immobilière;56100;Lorient;2;Rue Charles de Clairambault;;56121;Non Renseigné;Commerce;Non Renseigné;Non Renseigné;-3.3590039008357;47.7478678357761;True;False;False;True;True;True;False;True;;;;;;;;;;;;;False;True;True;False;False;False;False;FAUX;False;False;False;;;;;;False;;;False;Non Renseigné;True;Non Renseigné;False;False;;;;;;;False;False;dpt;moteur;NR;True
2563;Dojo;56310;Bubry;1;Rue du Docteur Troudet;LE BOURG;56026;Non Renseigné;Salle multisports;Non Renseigné;Non Renseigné;-3.17163437905064;47.963978962966;True;False;False;True;False;True;False;True;;;;;;;;;;;;;False;True;True;False;False;False;False;FAUX;False;False;False;;;;;;False;;;False;Non Renseigné;True;Non Renseigné;False;False;;;;;;;False;False;dpt;moteur;NR;True
2604;Espace des Sciences / Maison de La Mer ;56100;Lorient;6;Rue François Toullec;;56121;Non Renseigné;Musée;Non Renseigné;Non Renseigné;-3.37703879750483;47.7330045590734;True;False;False;True;True;True;False;True;;;;;;;;;;;;;False;True;True;False;False;False;False;FAUX;False;False;False;;;;;;False;;;False;Non Renseigné;True;Non Renseigné;False;False;;;;;;;False;False;dpt;moteur;NR;True
3649;Médecin généraliste;56310;Bubry;6;Place Saint-Antoine;LE BOURG;56026;Non Renseigné;Profession libérale de santé;Non Renseigné;Non Renseigné;-3.17407821440965;47.962929885211;True;False;False;True;False;True;False;True;;;;;;;;;;;;;False;True;True;False;False;False;False;FAUX;False;False;False;;;;;;False;;;False;Non Renseigné;True;Non Renseigné;False;False;;;;;;;False;False;dpt;moteur;NR;False
3378;Biscuiterie;56590;Groix;9;Route de Port Mélite;;56069;Non Renseigné;Commerce;Non Renseigné;Non Renseigné;-3.4537156373458;47.6390594522332;True;False;False;True;False;True;False;True;;;;;;;;;;;;;False;True;True;False;False;False;False;FAUX;False;False;False;;;;;;False;;;False;Non Renseigné;True;Non Renseigné;False;False;;;;;;;False;False;dpt;moteur;NR;False
3770;Neurofeedback;56600;Lanester;169;Rue Jean Jaurès;;56098;Non Renseigné;Autre profession libérale;Non Renseigné;Non Renseigné;-3.353507516901056;47.76836525148443;True;False;False;True;False;True;False;True;;;;;;;;;;;;;False;True;True;False;False;False;False;FAUX;False;False;False;;;;;;False;;;False;Non Renseigné;True;Non Renseigné;False;False;;;;;;;False;False;dpt;moteur;NR;False
2817;Multi-accueil L'Orange bleue ;56700;Hennebont;7;Rue Yvon Croizer;;56083;Non Renseigné;Crèche;Non Renseigné;Non Renseigné;-3.24491518674638;47.8130584364594;False;False;False;True;False;True;False;True;;;;;;;;;;;;;False;True;True;False;False;False;False;FAUX;False;False;False;;;;;;False;;;False;Non Renseigné;True;Non Renseigné;False;False;;;;;;;False;False;dpt;moteur;NR;True
1170;Crèche Le Farfadet;56270;Ploemeur;9049;Lieu-dit Kerpape;;56162;Non Renseigné;Crèche;Non Renseigné;Non Renseigné;-3.42045068063299;47.7064163520283;True;False;False;True;False;True;False;True;;;;;;;;;;;;;False;True;True;False;False;False;False;FAUX;False;False;False;;;;;;False;;;False;Non Renseigné;True;Non Renseigné;False;False;;;;;;;False;False;dpt;moteur;NR;False
1751;Location de véhicules;56100;Lorient;14;Cours Louis de Chazelles;;56121;Non Renseigné;Commerce;Non Renseigné;Non Renseigné;-3.36313731259897;47.7552736797803;True;False;False;True;True;True;False;True;;;;;;;;;;;;;False;True;True;False;False;False;False;FAUX;False;False;False;;;;;;False;;;False;Non Renseigné;True;Non Renseigné;False;False;;;;;;;False;False;dpt;moteur;NR;True
2726;Opticien;56670;Riantec;83;Rue de Kerdurand;;56193;Non Renseigné;Commerce;Non Renseigné;Non Renseigné;-3.32337094502436;47.7119349093999;True;False;False;True;False;True;False;True;;;;;;;;;;;;;False;True;True;False;False;False;False;FAUX;False;False;False;;;;;;False;;;False;Non Renseigné;True;Non Renseigné;False;False;;;;;;;False;False;dpt;moteur;NR;True
1474;Maison pour tous de Kervénanec;56100;Lorient;2;Rue Maurice Thorez;;56121;Non Renseigné;Centre social;Non Renseigné;Non Renseigné;-3.39371475061527;47.739931353719;True;False;False;True;True;True;False;True;;;;;;;;;;;;;False;True;True;False;False;False;False;FAUX;False;False;False;;;;;;False;;;False;Non Renseigné;True;Non Renseigné;False;False;;;;;;;False;False;dpt;moteur;NR;True
3774;Era Immobilier;56600;Lanester;1;Avenue François Billoux;;56098;Non Renseigné;Commerce;Non Renseigné;Non Renseigné;-3.3547949067685088;47.76743499679788;True;False;False;True;False;True;False;True;;;;;;;;;;;;;False;True;True;False;False;False;False;FAUX;False;False;False;;;;;;False;;;False;Non Renseigné;True;Non Renseigné;False;False;;;;;;;False;False;dpt;moteur;NR;False
1685;Avocat;56100;Lorient;12;Place des Halles Saint-Louis;;56121;Non Renseigné;Autre profession libérale;Non Renseigné;Non Renseigné;-3.35792020048974;47.7478802586309;True;False;False;True;True;True;False;True;;;;;;;;;;;;;False;True;True;False;False;False;False;FAUX;False;False;False;;;;;;False;;;False;Non Renseigné;True;Non Renseigné;False;False;;;;;;;False;False;dpt;moteur;NR;False
2849;Le Jardin Gourmand;56100;Lorient;46;Rue Jules Simon;;56121;Non Renseigné;Restaurant;Non Renseigné;Non Renseigné;-3.36720848619554;47.7575182408656;True;False;False;True;True;True;False;True;;;;;;;;;;;;;False;True;True;False;False;False;False;FAUX;False;False;False;;;;;;False;;;False;Non Renseigné;True;Non Renseigné;False;False;;;;;;;False;False;dpt;moteur;NR;True
1601;Maison des syndicats;56100;Lorient;78;Boulevard Cosmao Dumanoir;;56121;Non Renseigné;Maison des syndicats;Non Renseigné;Non Renseigné;-3.37381807528028;47.7530463722388;True;False;False;True;True;True;False;True;;;;;;;;;;;;;False;True;True;False;False;False;False;FAUX;False;False;False;;;;;;False;;;False;Non Renseigné;True;Non Renseigné;False;False;;;;;;;False;False;dpt;moteur;NR;False
3298;Traiteur;56240;Plouay;5;Rue Paul Ihuel;;56166;Non Renseigné;Commerce;Non Renseigné;Non Renseigné;-3.33481487871182;47.9142793116409;True;False;False;True;False;True;False;True;;;;;;;;;;;;;False;True;True;False;False;False;False;FAUX;False;False;False;;;;;;False;;;False;Non Renseigné;True;Non Renseigné;False;False;;;;;;;False;False;dpt;moteur;NR;False
3731;Garage Renault;56670;Riantec;9999;Rue du Pourquoi Pas;;56193;Non Renseigné;Commerce;Non Renseigné;Non Renseigné;-3.31938523378177;47.7220918977942;False;False;False;True;False;True;False;True;;;;;;;;;;;;;False;True;True;False;False;False;False;FAUX;False;False;False;;;;;;False;;;False;Non Renseigné;True;Non Renseigné;False;False;;;;;;;False;False;dpt;moteur;NR;False
3761;Le Carré d'As;56600;Lanester;9;Avenue Ambroise Croizat;;56098;Non Renseigné;Café, bar, brasserie;Non Renseigné;Non Renseigné;-3.3489777463324617;47.771136135663646;True;False;False;True;False;True;False;True;;;;;;;;;;;;;False;True;True;False;False;False;False;FAUX;False;False;False;;;;;;False;;;False;Non Renseigné;True;Non Renseigné;False;False;;;;;;;False;False;dpt;moteur;NR;False
3568;Observatoire du plancton;56290;Port-Louis;1;Boulevard de la Compagnie des Indes;;56181;Non Renseigné;Musée;Non Renseigné;Non Renseigné;-3.35182775247635;47.7077497316513;True;False;False;True;False;True;False;True;;;;;;;;;;;;;False;True;True;False;False;False;False;FAUX;False;False;False;;;;;;False;;;False;Non Renseigné;True;Non Renseigné;False;False;;;;;;;False;False;dpt;moteur;NR;False
3636;Boulangerie pâtisserie;56620;Cléguer;10;Rue Charles Renaud;;56040;Non Renseigné;Commerce;Non Renseigné;Non Renseigné;-3.3920183436354;47.8359651808385;True;False;False;True;False;True;False;True;;;;;;;;;;;;;False;True;True;False;False;False;False;FAUX;False;False;False;;;;;;False;;;False;Non Renseigné;True;Non Renseigné;False;False;;;;;;;False;False;dpt;moteur;NR;False
3127;Opticien;56100;Lorient;15;Boulevard Cosmao Dumanoir;;56121;Non Renseigné;Commerce;Non Renseigné;Non Renseigné;-3.36420483906758;47.7548522734141;True;False;False;True;True;True;False;True;;;;;;;;;;;;;False;True;True;False;False;False;False;FAUX;False;False;False;;;;;;False;;;False;Non Renseigné;True;Non Renseigné;False;False;;;;;;;False;False;dpt;moteur;NR;False
1886;Cellules Artisanales;56100;Lorient;1;Rue Didier Bestin;;56121;Non Renseigné;Entreprise;Non Renseigné;Non Renseigné;-3.35387536670015;47.7423989072594;True;False;False;True;True;True;False;True;;;;;;;;;;;;;False;True;True;False;False;False;False;FAUX;False;False;False;;;;;;False;;;False;Non Renseigné;True;Non Renseigné;False;False;;;;;;;False;False;dpt;moteur;NR;True
2904;Prêt-à-porter;56100;Lorient;20;Rue Paul Bert;;56121;Non Renseigné;Commerce;Non Renseigné;Non Renseigné;-3.36099174617343;47.747643627215;True;False;False;True;True;True;False;True;;;;;;;;;;;;;False;True;True;False;False;False;False;FAUX;False;False;False;;;;;;False;;;False;Non Renseigné;True;Non Renseigné;False;False;;;;;;;False;False;dpt;moteur;NR;False
2874;GCI Financement;56100;Lorient;37;Rue du Maréchal Foch;;56121;Non Renseigné;Banques, caisses d'épargne;Non Renseigné;Non Renseigné;-3.35952346747757;47.7493672193371;True;False;False;True;True;True;False;True;;;;;;;;;;;;;False;True;True;False;False;False;False;FAUX;False;False;False;;;;;;False;;;False;Non Renseigné;True;Non Renseigné;False;False;;;;;;;False;False;dpt;moteur;NR;True
1731;Prêt-à-porter;56100;Lorient;1;Rue des Fontaines;;56121;Non Renseigné;Commerce;Non Renseigné;Non Renseigné;-3.36127434624609;47.7490600111524;True;False;False;True;True;True;False;True;;;;;;;;;;;;;False;True;True;False;False;False;False;FAUX;False;False;False;;;;;;False;;;False;Non Renseigné;True;Non Renseigné;False;False;;;;;;;False;False;dpt;moteur;NR;True
3584;Pharmacie;56850;Caudan;6642;Rue Pierre Loti;LE BOURG;56036;Non Renseigné;Commerce;Non Renseigné;Non Renseigné;-3.34460081534149;47.8135401250379;True;False;False;True;False;True;False;True;;;;;;;;;;;;;False;True;True;False;False;False;False;FAUX;False;False;False;;;;;;False;;;False;Non Renseigné;True;Non Renseigné;False;False;;;;;;;False;False;dpt;moteur;NR;False
1521;Groupe scolaire de Kerfichant;56100;Lorient;9999;Rue Général de Bollardière;;56121;Non Renseigné;Groupe scolaire;Non Renseigné;Non Renseigné;-3.39168438201971;47.7560721979656;True;False;False;True;True;True;False;True;;;;;;;;;;;;;False;True;True;False;False;False;False;FAUX;False;False;False;;;;;;False;;;False;Non Renseigné;True;Non Renseigné;False;False;;;;;;;False;False;dpt;moteur;NR;False
1752;Boutique de lingerie;56100;Lorient;7;Rue Professeur Jean Perrin;;56121;Non Renseigné;Commerce;Non Renseigné;Non Renseigné;-3.36157567137117;47.7562664092836;True;False;False;True;True;True;False;True;;;;;;;;;;;;;False;True;True;False;False;False;False;FAUX;False;False;False;;;;;;False;;;False;Non Renseigné;True;Non Renseigné;False;False;;;;;;;False;False;dpt;moteur;NR;True
3651;Kinésithérapeute;56310;Bubry;3;Rue du Docteur Troudet;LE BOURG;56026;Non Renseigné;Profession libérale de santé;Non Renseigné;Non Renseigné;-3.17126183410712;47.9638853683409;True;False;False;True;False;True;False;True;;;;;;;;;;;;;False;True;True;False;False;False;False;FAUX;False;False;False;;;;;;False;;;False;Non Renseigné;True;Non Renseigné;False;False;;;;;;;False;False;dpt;moteur;NR;False
1272;Eglise Saint-Pierre;56270;Ploemeur;6;Place de l’Église;PARC BEREN;56162;Non Renseigné;Centre religieux;Non Renseigné;Non Renseigné;-3.42760583911861;47.7366070265299;True;False;False;True;False;True;False;True;;;;;;;;;;;;;False;True;True;False;False;False;False;FAUX;False;False;False;;;;;;False;;;False;Non Renseigné;True;Non Renseigné;False;False;;;;;;;False;False;dpt;moteur;NR;False
2781;Crêperie;56530;Quéven;57;Rue Jean Jaurès;;56185;Non Renseigné;Restaurant;Non Renseigné;Non Renseigné;-3.41587745689431;47.7864207021239;False;False;False;True;False;True;False;True;;;;;;;;;;;;;False;True;True;False;False;False;False;FAUX;False;False;False;;;;;;False;;;False;Non Renseigné;True;Non Renseigné;False;False;;;;;;;False;False;dpt;moteur;NR;True
1861;Capitainerie de Sainte-Catherine;56570;Locmiquélic;25;Rue du Port;;56118;Non Renseigné;Port;Non Renseigné;Non Renseigné;-3.34813957285644;47.7245677732807;False;False;False;True;False;True;False;True;;;;;;;;;;;;;False;True;True;False;False;False;False;FAUX;False;False;False;;;;;;False;;;False;Non Renseigné;True;Non Renseigné;False;False;;;;;;;False;False;dpt;moteur;NR;True
3442;Gendarmerie;56240;Plouay;4;Rue de L'Esplanade;;56166;Non Renseigné;Gendarmerie;Non Renseigné;Non Renseigné;-3.34029171650706;47.9187851051212;True;False;False;True;False;True;False;True;;;;;;;;;;;;;False;True;True;False;False;False;False;FAUX;False;False;False;;;;;;False;;;False;Non Renseigné;True;Non Renseigné;False;False;;;;;;;False;False;dpt;moteur;NR;False
3822;Perico-Labit;56600;Lanester;219;Rue Jean Jaurès;;56098;Non Renseigné;Commerce;Non Renseigné;Non Renseigné;-3.350169799652129;47.770183700277094;True;False;False;True;False;True;False;True;;;;;;;;;;;;;False;True;True;False;False;False;False;FAUX;False;False;False;;;;;;False;;;False;Non Renseigné;True;Non Renseigné;False;False;;;;;;;False;False;dpt;moteur;NR;False
2431;Maison de quartier de Langroix;56700;Hennebont;16;Rue Tagliaferri;;56083;Non Renseigné;Maison de quartier;Non Renseigné;Non Renseigné;-3.24765691213384;47.8237260367544;True;False;False;True;False;True;False;True;;;;;;;;;;;;;False;True;True;False;False;False;False;FAUX;False;False;False;;;;;;False;;;False;Non Renseigné;True;Non Renseigné;False;False;;;;;;;False;False;dpt;moteur;NR;False
3778;Coiffure O'Naturel;56600;Lanester;74;Avenue Ambroise Croizat;;56098;Non Renseigné;Commerce;Non Renseigné;Non Renseigné;-3.346448575264115;47.77450664710192;True;False;False;True;False;True;False;True;;;;;;;;;;;;;False;True;True;False;False;False;False;FAUX;False;False;False;;;;;;False;;;False;Non Renseigné;True;Non Renseigné;False;False;;;;;;;False;False;dpt;moteur;NR;False
1464;Centre culturel Amzer Nevez;56270;Ploemeur;2;Chemin du Conservatoire;;56162;Non Renseigné;Centre culturel;Non Renseigné;Non Renseigné;-3.40978115374848;47.7399471202519;True;False;False;True;False;True;False;True;;;;;;;;;;;;;False;True;True;False;False;False;False;FAUX;False;False;False;;;;;;False;;;False;Non Renseigné;True;Non Renseigné;False;False;;;;;;;False;False;dpt;moteur;NR;True
2071;Club House du golf de Val Quéven;56530;Quéven;9999;Lieu-dit Val Quéven les Fontaines;LES  FONTAINES;56185;Non Renseigné;Café, bar, brasserie;Non Renseigné;Non Renseigné;-3.41699600728021;47.8065851833191;False;False;False;True;False;True;False;True;;;;;;;;;;;;;False;True;True;False;False;False;False;FAUX;False;False;False;;;;;;False;;;False;Non Renseigné;True;Non Renseigné;False;False;;;;;;;False;False;dpt;moteur;NR;True
2269;Prêt-à-porter;56700;Hennebont;7;Rue Maréchal Joffre;;56083;Non Renseigné;Commerce;Non Renseigné;Non Renseigné;-3.27780705140018;47.8058537797865;True;False;False;True;False;True;False;True;;;;;;;;;;;;;False;True;True;False;False;False;False;FAUX;False;False;False;;;;;;False;;;False;Non Renseigné;True;Non Renseigné;False;False;;;;;;;False;False;dpt;moteur;NR;True
2892;Biscuiterie La Trinitaine;56100;Lorient;8;Rue du Port;;56121;Non Renseigné;Commerce;Non Renseigné;Non Renseigné;-3.36281944548773;47.7481029652001;True;False;False;True;True;True;False;True;;;;;;;;;;;;;False;True;True;False;False;False;False;FAUX;False;False;False;;;;;;False;;;False;Non Renseigné;True;Non Renseigné;False;False;;;;;;;False;False;dpt;moteur;NR;False
1218;Location immobilière;56520;Guidel;23;Rue Capitaine Quillien;;56078;Non Renseigné;Commerce;Non Renseigné;Non Renseigné;-3.48414103717577;47.7889392204526;True;False;False;True;False;True;False;True;;;;;;;;;;;;;False;True;True;False;False;False;False;FAUX;False;False;False;;;;;;False;;;False;Non Renseigné;True;Non Renseigné;False;False;;;;;;;False;False;dpt;moteur;NR;False
2909;Prêt-à-porter;56100;Lorient;29;Rue de Liège;;56121;Non Renseigné;Commerce;Non Renseigné;Non Renseigné;-3.36107771198433;47.7480566169311;True;False;False;True;True;True;False;True;;;;;;;;;;;;;False;True;True;False;False;False;False;FAUX;False;False;False;;;;;;False;;;False;Non Renseigné;True;Non Renseigné;False;False;;;;;;;False;False;dpt;moteur;NR;False
1444;Chapelle de La Trinité;56670;Riantec;30;Rue de Kerner;;56193;Non Renseigné;Centre religieux;Non Renseigné;Non Renseigné;-3.30569692750167;47.7070243767594;True;False;False;True;False;True;False;True;;;;;;;;;;;;;False;True;True;False;False;False;False;FAUX;False;False;False;;;;;;False;;;False;Non Renseigné;True;Non Renseigné;False;False;;;;;;;False;False;dpt;moteur;NR;True
3709;Boulangerie pâtisserie;56650;Inzinzac-Lochrist;4;Quartier Julien le Grand;;56090;Non Renseigné;Commerce;Non Renseigné;Non Renseigné;-3.2487190549881;47.8265851232581;True;False;False;True;False;True;False;True;;;;;;;;;;;;;False;True;True;False;False;False;False;FAUX;False;False;False;;;;;;False;;;False;Non Renseigné;True;Non Renseigné;False;False;;;;;;;False;False;dpt;moteur;NR;False
3000;Opticien;56520;Guidel;9;Place de Polignac;;56078;Non Renseigné;Commerce;Non Renseigné;Non Renseigné;-3.4884778203553;47.7892904080867;True;False;False;True;False;True;False;True;;;;;;;;;;;;;False;True;True;False;False;False;False;FAUX;False;False;False;;;;;;False;;;False;Non Renseigné;True;Non Renseigné;False;False;;;;;;;False;False;dpt;moteur;NR;False
2425;Toilettes publiques;56700;Hennebont;3;Rue du Bouetiez;LANCEVELIN;56083;Non Renseigné;Toilettes publiques;Non Renseigné;Non Renseigné;-3.24223557720713;47.809974712749;True;False;False;True;False;True;False;True;;;;;;;;;;;;;False;True;True;False;False;False;False;FAUX;False;False;False;;;;;;False;;;False;Non Renseigné;True;Non Renseigné;False;False;;;;;;;False;False;dpt;moteur;NR;False
2820;Cabinet de radiologie;56700;Hennebont;13;Avenue Salvador Allende;;56083;Non Renseigné;Profession libérale de santé;Non Renseigné;Non Renseigné;-3.26492636939293;47.8032945932901;False;False;False;True;False;True;False;True;;;;;;;;;;;;;False;True;True;False;False;False;False;FAUX;False;False;False;;;;;;False;;;False;Non Renseigné;True;Non Renseigné;False;False;;;;;;;False;False;dpt;moteur;NR;False
3415;Librairie;56590;Groix;3;Place de l’Église;;56069;Non Renseigné;Commerce;Non Renseigné;Non Renseigné;-3.4547890619022;47.6393046225348;True;False;False;True;False;True;False;True;;;;;;;;;;;;;False;True;True;False;False;False;False;FAUX;False;False;False;;;;;;False;;;False;Non Renseigné;True;Non Renseigné;False;False;;;;;;;False;False;dpt;moteur;NR;False
3197;Kinésithérapeute;56620;Pont-Scorff;8;Clos des Hirondelles;;56179;Non Renseigné;Profession libérale de santé;Non Renseigné;Non Renseigné;-3.40092464184684;47.8321677422266;True;False;False;True;False;True;False;True;;;;;;;;;;;;;False;True;True;False;False;False;False;FAUX;False;False;False;;;;;;False;;;False;Non Renseigné;True;Non Renseigné;False;False;;;;;;;False;False;dpt;moteur;NR;False
3783;Garage;56600;Lanester;8;Rue Jean Jaurès;;56098;Non Renseigné;Commerce;Non Renseigné;Non Renseigné;-3.361341802757404;47.763483535237164;True;False;False;True;False;True;False;True;;;;;;;;;;;;;False;True;True;False;False;False;False;FAUX;False;False;False;;;;;;False;;;False;Non Renseigné;True;Non Renseigné;False;False;;;;;;;False;False;dpt;moteur;NR;False
3765;La Belle-Vue;56600;Lanester;50;Avenue Ambroise Croizat;;56098;Non Renseigné;Café, bar, brasserie;Non Renseigné;Non Renseigné;-3.3477677513107778;47.772609557655635;True;False;False;True;False;True;False;True;;;;;;;;;;;;;False;True;True;False;False;False;False;FAUX;False;False;False;;;;;;False;;;False;Non Renseigné;True;Non Renseigné;False;False;;;;;;;False;False;dpt;moteur;NR;False
3279;Boulangerie;56240;Plouay;23;Rue des Alliés;;56166;Non Renseigné;Commerce;Non Renseigné;Non Renseigné;-3.33283987505252;47.9163874735999;True;False;False;True;False;True;False;True;;;;;;;;;;;;;False;True;True;False;False;False;False;FAUX;False;False;False;;;;;;False;;;False;Non Renseigné;True;Non Renseigné;False;False;;;;;;;False;False;dpt;moteur;NR;False
1284;Cuisine de Kerlaran pour les personnes âgées;56530;Quéven;1;Allée du Tulipier;;56185;Non Renseigné;Restaurant municipal;Non Renseigné;Non Renseigné;-3.41821534408177;47.7863963703484;False;False;False;True;False;True;False;True;;;;;;;;;;;;;False;True;True;False;False;False;False;FAUX;False;False;False;;;;;;False;;;False;Non Renseigné;True;Non Renseigné;False;False;;;;;;;False;False;dpt;moteur;NR;True
1436;Point information touristique;56670;Riantec;2;Ruelle de la Paix;KERDUDO;56193;Non Renseigné;Office du tourisme;Non Renseigné;Non Renseigné;-3.31047992616268;47.7104302485541;True;False;False;True;False;True;False;True;;;;;;;;;;;;;False;True;True;False;False;False;False;FAUX;False;False;False;;;;;;False;;;False;Non Renseigné;True;Non Renseigné;False;False;;;;;;;False;False;dpt;moteur;NR;False
1360;Toilettes publiques;56680;Gâvres;7;Place de la Mairie;LE BOURG;56062;Non Renseigné;Toilettes publiques;Non Renseigné;Non Renseigné;-3.35300693278277;47.6967246313242;True;False;False;True;False;True;False;True;;;;;;;;;;;;;False;True;True;False;False;False;False;FAUX;False;False;False;;;;;;False;;;False;Non Renseigné;True;Non Renseigné;False;False;;;;;;;False;False;dpt;moteur;NR;False
3331;Salon de beauté;56100;Lorient;125;Rue de Belgique;Z.A.C   LE   MOURILLON;56121;Non Renseigné;Commerce;Non Renseigné;Non Renseigné;-3.38392336677113;47.7604890900222;True;False;False;True;True;True;False;True;;;;;;;;;;;;;False;True;True;False;False;False;False;FAUX;False;False;False;;;;;;False;;;False;Non Renseigné;True;Non Renseigné;False;False;;;;;;;False;False;dpt;moteur;NR;False
3543;Pharmacie;56440;Languidic;23;Place du Général de Gaulle;;56101;Non Renseigné;Commerce;Non Renseigné;Non Renseigné;-3.15814958446975;47.8334572235629;True;False;False;True;False;True;False;True;;;;;;;;;;;;;False;True;True;False;False;False;False;FAUX;False;False;False;;;;;;False;;;False;Non Renseigné;True;Non Renseigné;False;False;;;;;;;False;False;dpt;moteur;NR;False
3800;Stressless;56600;Lanester;76;Avenue Ambroise Croizat;;56098;Non Renseigné;Commerce;Non Renseigné;Non Renseigné;-3.346184047207052;47.774874252036135;True;False;False;True;False;True;False;True;;;;;;;;;;;;;False;True;True;False;False;False;False;FAUX;False;False;False;;;;;;False;;;False;Non Renseigné;True;Non Renseigné;False;False;;;;;;;False;False;dpt;moteur;NR;False
2657;Pharmacie;56100;Lorient;1;Rue Hector Berlioz;KERVREHAN;56121;Non Renseigné;Commerce;Non Renseigné;Non Renseigné;-3.3789754835621;47.7633016775796;True;False;False;True;True;True;False;True;;;;;;;;;;;;;False;True;True;False;False;False;False;FAUX;False;False;False;;;;;;False;;;False;Non Renseigné;True;Non Renseigné;False;False;;;;;;;False;False;dpt;moteur;NR;False
1245;Point information jeunesse;56270;Ploemeur;9999;Rue de Kervam;;56162;Non Renseigné;Point information jeunesse;Non Renseigné;Non Renseigné;-3.42712303204631;47.7338243396304;True;False;False;True;False;True;False;True;;;;;;;;;;;;;False;True;True;False;False;False;False;FAUX;False;False;False;;;;;;False;;;False;Non Renseigné;True;Non Renseigné;False;False;;;;;;;False;False;dpt;moteur;NR;False
3574;Salon de coiffure;56290;Port-Louis;1;Rue Joachim Uhel;;56181;Non Renseigné;Commerce;Non Renseigné;Non Renseigné;-3.34386461078079;47.7116478946266;True;False;False;True;False;True;False;True;;;;;;;;;;;;;False;True;True;False;False;False;False;FAUX;False;False;False;;;;;;False;;;False;Non Renseigné;True;Non Renseigné;False;False;;;;;;;False;False;dpt;moteur;NR;False
2163;Mairie;56850;Caudan;9999;Place Louis le Léannec;;56036;Non Renseigné;Mairie;Non Renseigné;Non Renseigné;-3.3400425175427;47.8103804087529;True;False;False;True;False;True;False;True;;;;;;;;;;;;;False;True;True;False;False;False;False;FAUX;False;False;False;;;;;;False;;;False;Non Renseigné;True;Non Renseigné;False;False;;;;;;;False;False;dpt;moteur;NR;True
1145;Mairie;56590;Groix;13;Place Joseph Yvon;LE BOURG;56069;Non Renseigné;Mairie;Non Renseigné;Non Renseigné;-3.45493580194639;47.6385602395777;True;False;False;True;False;True;False;True;;;;;;;;;;;;;False;True;True;False;False;False;False;FAUX;False;False;False;;;;;;False;;;False;Non Renseigné;True;Non Renseigné;False;False;;;;;;;False;False;dpt;moteur;NR;False
2514;Mairie;56440;Languidic;1;Rue du Colloter;LE BOURG;56101;Non Renseigné;Mairie;Non Renseigné;Non Renseigné;-3.1583658692066;47.8341242421241;True;False;False;True;False;True;False;True;;;;;;;;;;;;;False;True;True;False;False;False;False;FAUX;False;False;False;;;;;;False;;;False;Non Renseigné;True;Non Renseigné;False;False;;;;;;;False;False;dpt;moteur;NR;False
3747;TESTDOM;56100;Lorient;26;Boulevard Cosmao Dumanoir;;56121;Non Renseigné;Lycée;Non Renseigné;Non Renseigné;-3.36382244188760904;47.7546621886482257;True;False;False;True;True;True;False;True;;;;;;;;;;;;;False;True;True;False;False;False;False;FAUX;False;False;False;;;;;;False;;;False;Non Renseigné;True;Non Renseigné;False;False;;;;;;;False;False;dpt;moteur;NR;False
1159;Ecole élémentaire Notre-Dame de La Garde;56270;Ploemeur;3;Chemin du Talud;;56162;Non Renseigné;École élémentaire;Non Renseigné;Non Renseigné;-3.44383879421058;47.7029591903597;True;False;False;True;False;True;False;True;;;;;;;;;;;;;False;True;True;False;False;False;False;FAUX;False;False;False;;;;;;False;;;False;Non Renseigné;True;Non Renseigné;False;False;;;;;;;False;False;dpt;moteur;NR;False
2708;Pharmacie;56100;Lorient;68;Avenue Jean Jaurès;;56121;Non Renseigné;Commerce;Non Renseigné;Non Renseigné;-3.37420765715948;47.7450252117347;True;False;False;True;True;True;False;True;;;;;;;;;;;;;False;True;True;False;False;False;False;FAUX;False;False;False;;;;;;False;;;False;Non Renseigné;True;Non Renseigné;False;False;;;;;;;False;False;dpt;moteur;NR;False
2494;Foyer Residence du Marégo;56440;Languidic;9999;Résidence du Marégo;;56101;Non Renseigné;EHPAD;Non Renseigné;Non Renseigné;-3.16433343644194;47.8333444957541;True;False;False;True;False;True;False;True;;;;;;;;;;;;;False;True;True;False;False;False;False;FAUX;False;False;False;;;;;;False;;;False;Non Renseigné;True;Non Renseigné;False;False;;;;;;;False;False;dpt;moteur;NR;False
2970;Espace Rostand salle Speicher;56850;Caudan;19;Rue des Chênes;;56036;Non Renseigné;Salle des fêtes;Non Renseigné;Non Renseigné;-3.34192428286831;47.8080964852653;True;False;False;True;False;True;False;True;;;;;;;;;;;;;False;True;True;False;False;False;False;FAUX;False;False;False;;;;;;False;;;False;Non Renseigné;True;Non Renseigné;False;False;;;;;;;False;False;dpt;moteur;NR;False
3419;Crêperie La Voilerie;56590;Groix;54;Rue du Général de Gaulle;;56069;Non Renseigné;Restaurant;Non Renseigné;Non Renseigné;-3.44901398565146;47.6424218691908;True;False;False;True;False;True;False;True;;;;;;;;;;;;;False;True;True;False;False;False;False;FAUX;False;False;False;;;;;;False;;;False;Non Renseigné;True;Non Renseigné;False;False;;;;;;;False;False;dpt;moteur;NR;False
1939;Avenir Sénior Plus;56600;Lanester;96;Rue Jean Jaurès;;56098;Non Renseigné;Service ou aide à domicile;Non Renseigné;Non Renseigné;-3.35666851755388;47.7663406246586;True;False;False;True;False;True;False;True;;;;;;;;;;;;;False;True;True;False;False;False;False;FAUX;False;False;False;;;;;;False;;;False;Non Renseigné;True;Non Renseigné;False;False;;;;;;;False;False;dpt;moteur;NR;True
3406;L'Auberge du pêcheur;56590;Groix;58;Rue du Général de Gaulle;;56069;Non Renseigné;Restaurant;Non Renseigné;Non Renseigné;-3.4485600814416;47.6424892898638;True;False;False;True;False;True;False;True;;;;;;;;;;;;;False;True;True;False;False;False;False;FAUX;False;False;False;;;;;;False;;;False;Non Renseigné;True;Non Renseigné;False;False;;;;;;;False;False;dpt;moteur;NR;False
2663;Bijouterie;56700;Hennebont;3;Rue Trottier;;56083;Non Renseigné;Commerce;Non Renseigné;Non Renseigné;-3.27767893061377;47.8055463589066;True;False;False;True;False;True;False;True;;;;;;;;;;;;;False;True;True;False;False;False;False;FAUX;False;False;False;;;;;;False;;;False;Non Renseigné;True;Non Renseigné;False;False;;;;;;;False;False;dpt;moteur;NR;True
3548;Dentiste;56440;Languidic;4;Rue de la Libération;;56101;Non Renseigné;Profession libérale de santé;Non Renseigné;Non Renseigné;-3.15652687368031;47.8338279698035;True;False;False;True;False;True;False;True;;;;;;;;;;;;;False;True;True;False;False;False;False;FAUX;False;False;False;;;;;;False;;;False;Non Renseigné;True;Non Renseigné;False;False;;;;;;;False;False;dpt;moteur;NR;False
1785;Garderie;56100;Lorient;23;Rue de Kerulvé;;56121;Non Renseigné;Crèche;Non Renseigné;Non Renseigné;-3.38902368787769;47.763682721689;True;False;False;True;True;True;False;True;;;;;;;;;;;;;False;True;True;False;False;False;False;FAUX;False;False;False;;;;;;False;;;False;Non Renseigné;True;Non Renseigné;False;False;;;;;;;False;False;dpt;moteur;NR;True
3692;Pizzeria La Plage;56520;Guidel;4;Place du Bas Pouldu;;56078;Non Renseigné;Restaurant;Non Renseigné;Non Renseigné;-3.52690949953267;47.7720001737646;True;False;False;True;False;True;False;True;;;;;;;;;;;;;False;True;True;False;False;False;False;FAUX;False;False;False;;;;;;False;;;False;Non Renseigné;True;Non Renseigné;False;False;;;;;;;False;False;dpt;moteur;NR;False
2923;Salon de coiffure;56100;Lorient;1;Rue Adolphe Rondeaux;KERLARD;56121;Non Renseigné;Commerce;Non Renseigné;Non Renseigné;-3.36312603564715;47.7435108001424;True;False;False;True;True;True;False;True;;;;;;;;;;;;;False;True;True;False;False;False;False;FAUX;False;False;False;;;;;;False;;;False;Non Renseigné;True;Non Renseigné;False;False;;;;;;;False;False;dpt;moteur;NR;False
2352;Chapelle de Kergohane;56440;Languidic;23;Chemin Yvon Mauffret;KERGOHANE;56101;Non Renseigné;Centre religieux;Non Renseigné;Non Renseigné;-3.15299286710618;47.8006469112416;False;False;False;True;False;True;False;True;;;;;;;;;;;;;False;True;True;False;False;False;False;FAUX;False;False;False;;;;;;False;;;False;Non Renseigné;True;Non Renseigné;False;False;;;;;;;False;False;dpt;moteur;NR;False
3389;Agence immobilière;56100;Lorient;2;Rue Camille Desmoulins;;56121;Non Renseigné;Commerce;Non Renseigné;Non Renseigné;-3.39122127748316;47.7551207029598;True;False;False;True;True;True;False;True;;;;;;;;;;;;;False;True;True;False;False;False;False;FAUX;False;False;False;;;;;;False;;;False;Non Renseigné;True;Non Renseigné;False;False;;;;;;;False;False;dpt;moteur;NR;False
3751;Office notarial;56600;Lanester;158;Rue Jean Jaurès;;56098;Non Renseigné;Commerce;Non Renseigné;Non Renseigné;-3.3520861409490297;47.76897230238191;True;False;False;True;False;True;False;True;;;;;;;;;;;;;False;True;True;False;False;False;False;FAUX;False;False;False;;;;;;False;;;False;Non Renseigné;True;Non Renseigné;False;False;;;;;;;False;False;dpt;moteur;NR;False
1661;Commissariat de police;56100;Lorient;3;Quai Charles de Rohan;;56121;Non Renseigné;Commissariat de police;Non Renseigné;Non Renseigné;-3.36183146759416;47.7452669613558;True;False;False;True;True;True;False;True;;;;;;;;;;;;;False;True;True;False;False;False;False;FAUX;False;False;False;;;;;;False;;;False;Non Renseigné;True;Non Renseigné;False;False;;;;;;;False;False;dpt;moteur;NR;True
1434;Salle Henri Queffélec;56670;Riantec;9999;Rue Joliot Curie;;56193;Non Renseigné;Salle des fêtes;Non Renseigné;Non Renseigné;-3.31230890184904;47.7114185147415;True;False;False;True;False;True;False;True;;;;;;;;;;;;;False;True;True;False;False;False;False;FAUX;False;False;False;;;;;;False;;;False;Non Renseigné;True;Non Renseigné;False;False;;;;;;;False;False;dpt;moteur;NR;True
1671;Opticien;56100;Lorient;5;Rue de la Patrie;;56121;Non Renseigné;Commerce;Non Renseigné;Non Renseigné;-3.36216465820805;47.7480680118383;True;False;False;True;True;True;False;True;;;;;;;;;;;;;False;True;True;False;False;False;False;FAUX;False;False;False;;;;;;False;;;False;Non Renseigné;True;Non Renseigné;False;False;;;;;;;False;False;dpt;moteur;NR;True
3571;Notaire;56440;Languidic;9;Rue de la Mairie;;56101;Non Renseigné;Autre profession libérale;Non Renseigné;Non Renseigné;-3.15925318349857;47.8339441627323;True;False;False;True;False;True;False;True;;;;;;;;;;;;;False;True;True;False;False;False;False;FAUX;False;False;False;;;;;;False;;;False;Non Renseigné;True;Non Renseigné;False;False;;;;;;;False;False;dpt;moteur;NR;False
2933;Salon de coiffure;56700;Hennebont;65;Rue Maréchal Joffre;;56083;Non Renseigné;Commerce;Non Renseigné;Non Renseigné;-3.27498478553825;47.8074693155707;True;False;False;True;False;True;False;True;;;;;;;;;;;;;False;True;True;False;False;False;False;FAUX;False;False;False;;;;;;False;;;False;Non Renseigné;True;Non Renseigné;False;False;;;;;;;False;False;dpt;moteur;NR;False
3178;Médecin généraliste;56240;Plouay;2;Rue du Docteur Berthy;;56166;Non Renseigné;Profession libérale de santé;Non Renseigné;Non Renseigné;-3.33795516103048;47.9182647941735;False;False;False;True;False;True;False;True;;;;;;;;;;;;;False;True;True;False;False;False;False;FAUX;False;False;False;;;;;;False;;;False;Non Renseigné;True;Non Renseigné;False;False;;;;;;;False;False;dpt;moteur;NR;False
1191;Camping Les Jardins de Kergal;56520;Guidel;9001;Lieu-dit Traourec;;56078;Non Renseigné;Camping caravaning;Non Renseigné;Non Renseigné;-3.50620124587863;47.7748311079322;False;False;False;True;False;True;False;True;;;;;;;;;;;;;False;True;True;False;False;False;False;FAUX;False;False;False;;;;;;False;;;False;Non Renseigné;True;Non Renseigné;False;False;;;;;;;False;False;dpt;moteur;NR;False
3674;Médecin généraliste;56520;Guidel;14;Place Louis le Montagner;;56078;Non Renseigné;Profession libérale de santé;Non Renseigné;Non Renseigné;-3.49404245659163;47.7924182081066;True;False;False;True;False;True;False;True;;;;;;;;;;;;;False;True;True;False;False;False;False;FAUX;False;False;False;;;;;;False;;;False;Non Renseigné;True;Non Renseigné;False;False;;;;;;;False;False;dpt;moteur;NR;False
2822;Orthophoniste;56700;Hennebont;18;Rue Nationale;;56083;Non Renseigné;Profession libérale de santé;Non Renseigné;Non Renseigné;-3.27474881518973;47.8070458749144;True;False;False;True;False;True;False;True;;;;;;;;;;;;;False;True;True;False;False;False;False;FAUX;False;False;False;;;;;;False;;;False;Non Renseigné;True;Non Renseigné;False;False;;;;;;;False;False;dpt;moteur;NR;True
3207;Vétérinaire;56530;Quéven;7;Rue Jean Jaurès;;56185;Non Renseigné;Autre profession libérale;Non Renseigné;Non Renseigné;-3.41607255077341;47.7896610313001;True;False;False;True;False;True;False;True;;;;;;;;;;;;;False;True;True;False;False;False;False;FAUX;False;False;False;;;;;;False;;;False;Non Renseigné;True;Non Renseigné;False;False;;;;;;;False;False;dpt;moteur;NR;False
3304;Prêt-à-porter;56240;Plouay;7;Rue Paul Ihuel;ER  POUILLAO;56166;Non Renseigné;Commerce;Non Renseigné;Non Renseigné;-3.33483902604777;47.9141542429785;True;False;False;True;False;True;False;True;;;;;;;;;;;;;False;True;True;False;False;False;False;FAUX;False;False;False;;;;;;False;;;False;Non Renseigné;True;Non Renseigné;False;False;;;;;;;False;False;dpt;moteur;NR;False
2342;Toilettes publiques;56700;Brandérion;1;Rue Vincent Renaud;LE BOURG;56021;Non Renseigné;Toilettes publiques;Non Renseigné;Non Renseigné;-3.19439826195522;47.7934097827897;True;False;False;True;False;True;False;True;;;;;;;;;;;;;False;True;True;False;False;False;False;FAUX;False;False;False;;;;;;False;;;False;Non Renseigné;True;Non Renseigné;False;False;;;;;;;False;False;dpt;moteur;NR;True
3552;Institut de beauté;56440;Languidic;9;Place de l'Appel du 18 Juin 1940;;56101;Non Renseigné;Commerce;Non Renseigné;Non Renseigné;-3.15770106936267;47.8320051281476;True;False;False;True;False;True;False;True;;;;;;;;;;;;;False;True;True;False;False;False;False;FAUX;False;False;False;;;;;;False;;;False;Non Renseigné;True;Non Renseigné;False;False;;;;;;;False;False;dpt;moteur;NR;False
2743;Boutique de cadeaux;56240;Plouay;7;Place de l'Église;;56166;Non Renseigné;Commerce;Non Renseigné;Non Renseigné;-3.33441037841771;47.9146210974227;True;False;False;True;False;True;False;True;;;;;;;;;;;;;False;True;True;False;False;False;False;FAUX;False;False;False;;;;;;False;;;False;Non Renseigné;True;Non Renseigné;False;False;;;;;;;False;False;dpt;moteur;NR;True
1728;Collège de Kerentrech;56100;Lorient;29;Rue Jules Simon;;56121;Non Renseigné;Collège;Non Renseigné;Non Renseigné;-3.36764148079191;47.7583734269323;True;False;False;True;True;True;False;True;;;;;;;;;;;;;False;True;True;False;False;False;False;FAUX;False;False;False;;;;;;False;;;False;Non Renseigné;True;Non Renseigné;False;False;;;;;;;False;False;dpt;moteur;NR;True
2447;Toilettes publiques;56650;Inzinzac-Lochrist;2;Rue Paul Verlaine;LE BOURG;56090;Non Renseigné;Toilettes publiques;Non Renseigné;Non Renseigné;-3.23369099972875;47.8667678498759;True;False;False;True;False;True;False;True;;;;;;;;;;;;;False;True;True;False;False;False;False;FAUX;False;False;False;;;;;;False;;;False;Non Renseigné;True;Non Renseigné;False;False;;;;;;;False;False;dpt;moteur;NR;True
1676;Maroquinerie;56100;Lorient;26;Rue des Fontaines;;56121;Non Renseigné;Commerce;Non Renseigné;Non Renseigné;-3.35943937877839;47.7482063740053;True;False;False;True;True;True;False;True;;;;;;;;;;;;;False;True;True;False;False;False;False;FAUX;False;False;False;;;;;;False;;;False;Non Renseigné;True;Non Renseigné;False;False;;;;;;;False;False;dpt;moteur;NR;True
3383;Gare maritime;56590;Groix;3;Lieu-dit Port Tudy;;56069;Non Renseigné;Gare maritime;Non Renseigné;Non Renseigné;-3.44857945343121;47.6438308505163;True;False;False;True;False;True;False;True;;;;;;;;;;;;;False;True;True;False;False;False;False;FAUX;False;False;False;;;;;;False;;;False;Non Renseigné;True;Non Renseigné;False;False;;;;;;;False;False;dpt;moteur;NR;False
3355;Salon de coiffure;56590;Groix;9;Place de l’Église;;56069;Non Renseigné;Commerce;Non Renseigné;Non Renseigné;-3.45533038725481;47.6389389889079;True;False;False;True;False;True;False;True;;;;;;;;;;;;;False;True;True;False;False;False;False;FAUX;False;False;False;;;;;;False;;;False;Non Renseigné;True;Non Renseigné;False;False;;;;;;;False;False;dpt;moteur;NR;False
1872;Salle Artimon;56570;Locmiquélic;6369;Place Jean Jaurès;;56118;Non Renseigné;Centre culturel;Non Renseigné;Non Renseigné;-3.34071398509227;47.726559419261;True;False;False;True;False;True;False;True;;;;;;;;;;;;;False;True;True;False;False;False;False;FAUX;False;False;False;;;;;;False;;;False;Non Renseigné;True;Non Renseigné;False;False;;;;;;;False;False;dpt;moteur;NR;True
1831;Maison de quartier du Bois du Château;56100;Lorient;9;Rue Jules Massenet;;56121;Non Renseigné;Centre social;Non Renseigné;Non Renseigné;-3.3754548624061;47.7656110044938;True;False;False;True;True;True;False;True;;;;;;;;;;;;;False;True;True;False;False;False;False;FAUX;False;False;False;;;;;;False;;;False;Non Renseigné;True;Non Renseigné;False;False;;;;;;;False;False;dpt;moteur;NR;False
3644;Magasin de prêt-à-porter;56310;Bubry;2;Place du Commerce;LE BOURG;56026;Non Renseigné;Commerce;Non Renseigné;Non Renseigné;-3.17222818221875;47.9631588931562;True;False;False;True;False;True;False;True;;;;;;;;;;;;;False;True;True;False;False;False;False;FAUX;False;False;False;;;;;;False;;;False;Non Renseigné;True;Non Renseigné;False;False;;;;;;;False;False;dpt;moteur;NR;False
1680;Tabac presse;56100;Lorient;35;Cours de la Bôve;;56121;Non Renseigné;Commerce;Non Renseigné;Non Renseigné;-3.35897990204972;47.747543087996;True;False;False;True;True;True;False;True;;;;;;;;;;;;;False;True;True;False;False;False;False;FAUX;False;False;False;;;;;;False;;;False;Non Renseigné;True;Non Renseigné;False;False;;;;;;;False;False;dpt;moteur;NR;True
2872;Agence de voyages;56100;Lorient;45;Rue du Maréchal Foch;;56121;Non Renseigné;Commerce;Non Renseigné;Non Renseigné;-3.35937328093966;47.7491518548976;True;False;False;True;True;True;False;True;;;;;;;;;;;;;False;True;True;False;False;False;False;FAUX;False;False;False;;;;;;False;;;False;Non Renseigné;True;Non Renseigné;False;False;;;;;;;False;False;dpt;moteur;NR;True
2676;Pharmacie;56680;Gâvres;40;Avenue des Sardiniers;;56062;Non Renseigné;Commerce;Non Renseigné;Non Renseigné;-3.3528439603661;47.696489138747;True;False;False;True;False;True;False;True;;;;;;;;;;;;;False;True;True;False;False;False;False;FAUX;False;False;False;;;;;;False;;;False;Non Renseigné;True;Non Renseigné;False;False;;;;;;;False;False;dpt;moteur;NR;False
3154;Pompes funèbres;56270;Ploemeur;3;Rue Sainte-Anne;;56162;Non Renseigné;Entreprise;Non Renseigné;Non Renseigné;-3.42677960805326;47.7365931863593;True;False;False;True;False;True;False;True;;;;;;;;;;;;;False;True;True;False;False;False;False;FAUX;False;False;False;;;;;;False;;;False;Non Renseigné;True;Non Renseigné;False;False;;;;;;;False;False;dpt;moteur;NR;False
2881;Boutique de lingerie;56100;Lorient;5;Rue des Fontaines;;56121;Non Renseigné;Commerce;Non Renseigné;Non Renseigné;-3.36102593814958;47.7489833411042;True;False;False;True;True;True;False;True;;;;;;;;;;;;;False;True;True;False;False;False;False;FAUX;False;False;False;;;;;;False;;;False;Non Renseigné;True;Non Renseigné;False;False;;;;;;;False;False;dpt;moteur;NR;True
3244;Boucherie;56530;Gestel;3;Rue de Kergornet;;56063;Non Renseigné;Commerce;Non Renseigné;Non Renseigné;-3.44220703397673;47.8038265027563;True;False;False;True;False;True;False;True;;;;;;;;;;;;;False;True;True;False;False;False;False;FAUX;False;False;False;;;;;;False;;;False;Non Renseigné;True;Non Renseigné;False;False;;;;;;;False;False;dpt;moteur;NR;False
2733;Prêt-à-porter;56240;Plouay;13;Place de la Mairie;LANN GAZEC;56166;Non Renseigné;Commerce;Non Renseigné;Non Renseigné;-3.33507371619505;47.9151265012527;True;False;False;True;False;True;False;True;;;;;;;;;;;;;False;True;True;False;False;False;False;FAUX;False;False;False;;;;;;False;;;False;Non Renseigné;True;Non Renseigné;False;False;;;;;;;False;False;dpt;moteur;NR;True
1462;Avocat;56100;Lorient;56;Rue Monistrol;;56121;Non Renseigné;Autre profession libérale;Non Renseigné;Non Renseigné;-3.38303429790101;47.7362534467692;True;False;False;True;True;True;False;True;;;;;;;;;;;;;False;True;True;False;False;False;False;FAUX;False;False;False;;;;;;False;;;False;Non Renseigné;True;Non Renseigné;False;False;;;;;;;False;False;dpt;moteur;NR;True
2539;Salle de gym;56440;Languidic;9;Rue du Stade;ER HOARI;56101;Non Renseigné;Equipement sportif;Non Renseigné;Non Renseigné;-3.09276556271475;47.8658446700287;False;False;False;True;False;True;False;True;;;;;;;;;;;;;False;True;True;False;False;False;False;FAUX;False;False;False;;;;;;False;;;False;Non Renseigné;True;Non Renseigné;False;False;;;;;;;False;False;dpt;moteur;NR;False
2750;Caisse d’Epargne;56440;Languidic;3;Place du Général de Gaulle;LE BOURG;56101;Non Renseigné;Banques, caisses d'épargne;Non Renseigné;Non Renseigné;-3.15777353019641;47.8339194474426;True;False;False;True;False;True;False;True;;;;;;;;;;;;;False;True;True;False;False;False;False;FAUX;False;False;False;;;;;;False;;;False;Non Renseigné;True;Non Renseigné;False;False;;;;;;;False;False;dpt;moteur;NR;True
2187;Poste;56240;Plouay;51;Rue Paul Ihuel;Z.A.C   LE   MOURILLON;56166;Non Renseigné;Poste;Non Renseigné;Non Renseigné;-3.33591616866991;47.9113534662593;True;False;False;True;False;True;False;True;;;;;;;;;;;;;False;True;True;False;False;False;False;FAUX;False;False;False;;;;;;False;;;False;Non Renseigné;True;Non Renseigné;False;False;;;;;;;False;False;dpt;moteur;NR;True
2702;Salon de coiffure;56100;Lorient;101;Rue de Lanveur;;56121;Non Renseigné;Commerce;Non Renseigné;Non Renseigné;-3.39241112728608;47.7442770834943;False;False;False;True;True;True;False;True;;;;;;;;;;;;;False;True;True;False;False;False;False;FAUX;False;False;False;;;;;;False;;;False;Non Renseigné;True;Non Renseigné;False;False;;;;;;;False;False;dpt;moteur;NR;True
1250;Bureaux Relais;56270;Ploemeur;2;Allée des Courreaux;LE BOURG;56162;Non Renseigné;Entreprise;Non Renseigné;Non Renseigné;-3.42453278354034;47.7322045555041;True;False;False;True;False;True;False;True;;;;;;;;;;;;;False;True;True;False;False;False;False;FAUX;False;False;False;;;;;;False;;;False;Non Renseigné;True;Non Renseigné;False;False;;;;;;;False;False;dpt;moteur;NR;False
2147;Ecole maternelle Claude Debussy;56850;Caudan;9999;Rue Jean-Pierre Calloc'h;;56036;Non Renseigné;École maternelle;Non Renseigné;Non Renseigné;-3.34442157019994;47.8079328508884;True;False;False;True;False;True;False;True;;;;;;;;;;;;;False;True;True;False;False;False;False;FAUX;False;False;False;;;;;;False;;;False;Non Renseigné;True;Non Renseigné;False;False;;;;;;;False;False;dpt;moteur;NR;False
3484;Chapelle de La Trinité;56530;Quéven;6979;Lieu-dit la Trinité;;56185;Non Renseigné;Centre religieux;Non Renseigné;Non Renseigné;-3.43466746311128;47.7825659080066;True;False;False;True;False;True;False;True;;;;;;;;;;;;;False;True;True;False;False;False;False;FAUX;False;False;False;;;;;;False;;;False;Non Renseigné;True;Non Renseigné;False;False;;;;;;;False;False;dpt;moteur;NR;False
2659;Club Omnisport de Kerentrech;56100;Lorient;29;Rue Jules Simon;;56121;Non Renseigné;Autre établissement d'enseignement;Non Renseigné;Non Renseigné;-3.36782606257073;47.7582045348293;True;False;False;True;True;True;False;True;;;;;;;;;;;;;False;True;True;False;False;False;False;FAUX;False;False;False;;;;;;False;;;False;Non Renseigné;True;Non Renseigné;False;False;;;;;;;False;False;dpt;moteur;NR;False
1383;Minigolf;56290;Port-Louis;9999;Rue des Bains;LE BOURG;56181;Non Renseigné;Equipement sportif;Non Renseigné;Non Renseigné;-3.35935467674771;47.7097270356679;False;False;False;True;False;True;False;True;;;;;;;;;;;;;False;True;True;False;False;False;False;FAUX;False;False;False;;;;;;False;;;False;Non Renseigné;True;Non Renseigné;False;False;;;;;;;False;False;dpt;moteur;NR;False
3803;Garage;56600;Lanester;68;Avenue Ambroise Croizat;;56098;Non Renseigné;Commerce;Non Renseigné;Non Renseigné;-3.3470601263622846;47.77354016999831;True;False;False;True;False;True;False;True;;;;;;;;;;;;;False;True;True;False;False;False;False;FAUX;False;False;False;;;;;;False;;;False;Non Renseigné;True;Non Renseigné;False;False;;;;;;;False;False;dpt;moteur;NR;False
2997;AXA Assurances;56520;Guidel;6;Rue de Saint-Maurice;NENEZE;56078;Non Renseigné;Banques, caisses d'épargne;Non Renseigné;Non Renseigné;-3.48917244156426;47.7901189090455;True;False;False;True;False;True;False;True;;;;;;;;;;;;;False;True;True;False;False;False;False;FAUX;False;False;False;;;;;;False;;;False;Non Renseigné;True;Non Renseigné;False;False;;;;;;;False;False;dpt;moteur;NR;False
1273;Mairie;56270;Ploemeur;12;Rue Sainte-Anne;;56162;Non Renseigné;Mairie;Non Renseigné;Non Renseigné;-3.42620966235614;47.7368075983848;True;False;False;True;False;True;False;True;;;;;;;;;;;;;False;True;True;False;False;False;False;FAUX;False;False;False;;;;;;False;;;False;Non Renseigné;True;Non Renseigné;False;False;;;;;;;False;False;dpt;moteur;NR;False
1933;Foyer de vie 'Le Chêne';56600;Lanester;33;Rue Jean-Marie le Hen;LE BOURG;56098;Non Renseigné;Centre médico-social;Non Renseigné;Non Renseigné;-3.35048465077368;47.7617109395475;True;False;False;True;False;True;False;True;;;;;;;;;;;;;False;True;True;False;False;False;False;FAUX;False;False;False;;;;;;False;;;False;Non Renseigné;True;Non Renseigné;False;False;;;;;;;False;False;dpt;moteur;NR;True
1802;Ecole Saint-Joseph;56530;Quéven;1;Rue Julien Moëllo;LES CINQ CHEMINS;56185;Non Renseigné;Groupe scolaire;Non Renseigné;Non Renseigné;-3.4170610331937;47.787963448523;True;False;False;True;False;True;False;True;;;;;;;;;;;;;False;True;True;False;False;False;False;FAUX;False;False;False;;;;;;False;;;False;Non Renseigné;True;Non Renseigné;False;False;;;;;;;False;False;dpt;moteur;NR;False
1496;Ecole François Tanguy;56100;Lorient;35;Rue Joseph Hénaff;;56121;Non Renseigné;Groupe scolaire;Non Renseigné;Non Renseigné;-3.39389180183542;47.7494768643685;True;False;False;True;True;True;False;True;;;;;;;;;;;;;False;True;True;False;False;False;False;FAUX;False;False;False;;;;;;False;;;False;Non Renseigné;True;Non Renseigné;False;False;;;;;;;False;False;dpt;moteur;NR;True
3159;Fleuriste;56270;Ploemeur;8;Rue Saint-Bieuzy;;56162;Non Renseigné;Commerce;Non Renseigné;Non Renseigné;-3.42834105674181;47.736028732945;True;False;False;True;False;True;False;True;;;;;;;;;;;;;False;True;True;False;False;False;False;FAUX;False;False;False;;;;;;False;;;False;Non Renseigné;True;Non Renseigné;False;False;;;;;;;False;False;dpt;moteur;NR;False
2636;Camping de l'Etang;56240;Plouay;6;Lieu-dit Pont-Nivino;PONT-NIVINO;56166;Non Renseigné;Camping caravaning;Non Renseigné;Non Renseigné;-3.36573956570444;47.9119212576914;True;False;False;True;False;True;False;True;;;;;;;;;;;;;False;True;True;False;False;False;False;FAUX;False;False;False;;;;;;False;;;False;Non Renseigné;True;Non Renseigné;False;False;;;;;;;False;False;dpt;moteur;NR;False
2557;Eglise Saint-Pierre-Saint-Paul;56310;Bubry;4;Rue du Centre;LE BOURG;56026;Non Renseigné;Centre religieux;Non Renseigné;Non Renseigné;-3.17360056287762;47.9631544478999;True;False;False;True;False;True;False;True;;;;;;;;;;;;;False;True;True;False;False;False;False;FAUX;False;False;False;;;;;;False;;;False;Non Renseigné;True;Non Renseigné;False;False;;;;;;;False;False;dpt;moteur;NR;False
2890;Salon de coiffure;56100;Lorient;25;Rue Auguste Nayel;;56121;Non Renseigné;Commerce;Non Renseigné;Non Renseigné;-3.36330560801874;47.7478203331319;True;False;False;True;True;True;False;True;;;;;;;;;;;;;False;True;True;False;False;False;False;FAUX;False;False;False;;;;;;False;;;False;Non Renseigné;True;Non Renseigné;False;False;;;;;;;False;False;dpt;moteur;NR;False
2666;AXA Assurances;56700;Hennebont;1;Place Maréchal Foch;;56083;Non Renseigné;Banques, caisses d'épargne;Non Renseigné;Non Renseigné;-3.27651971055208;47.8056702190605;True;False;False;True;False;True;False;True;;;;;;;;;;;;;False;True;True;False;False;False;False;FAUX;False;False;False;;;;;;False;;;False;Non Renseigné;True;Non Renseigné;False;False;;;;;;;False;False;dpt;moteur;NR;False
3433;Hôtel de la Marine;56590;Groix;7;Rue du Général de Gaulle;;56069;Non Renseigné;Hôtel;Non Renseigné;Non Renseigné;-3.45398553901666;47.6396580262711;True;False;False;True;False;True;False;True;;;;;;;;;;;;;False;True;True;False;False;False;False;FAUX;False;False;False;;;;;;False;;;False;Non Renseigné;True;Non Renseigné;False;False;;;;;;;False;False;dpt;moteur;NR;False
2662;Prêt-à-porter;56700;Hennebont;17;Rue Maréchal Joffre;;56083;Non Renseigné;Commerce;Non Renseigné;Non Renseigné;-3.27726037499844;47.8058703872501;True;False;False;True;False;True;False;True;;;;;;;;;;;;;False;True;True;False;False;False;False;FAUX;False;False;False;;;;;;False;;;False;Non Renseigné;True;Non Renseigné;False;False;;;;;;;False;False;dpt;moteur;NR;False
2597;CEECAP Danse;56100;Lorient;5;Rue Pierre Maël;;56121;Non Renseigné;Ecole de danse;Non Renseigné;Non Renseigné;-3.36447457637536;47.7531624941126;False;False;False;True;True;True;False;True;;;;;;;;;;;;;False;True;True;False;False;False;False;FAUX;False;False;False;;;;;;False;;;False;Non Renseigné;True;Non Renseigné;False;False;;;;;;;False;False;dpt;moteur;NR;False
3359;Magasin d'électroménager;56590;Groix;11;Place Joseph Yvon;;56069;Non Renseigné;Commerce;Non Renseigné;Non Renseigné;-3.45505354723662;47.6386909896672;True;False;False;True;False;True;False;True;;;;;;;;;;;;;False;True;True;False;False;False;False;FAUX;False;False;False;;;;;;False;;;False;Non Renseigné;True;Non Renseigné;False;False;;;;;;;False;False;dpt;moteur;NR;False
1777;Toilettes publiques;56100;Lorient;1;Place de la Liberté;;56121;Non Renseigné;Toilettes publiques;Non Renseigné;Non Renseigné;-3.38568699062694;47.7610969090616;True;False;False;True;True;True;False;True;;;;;;;;;;;;;False;True;True;False;False;False;False;FAUX;False;False;False;;;;;;False;;;False;Non Renseigné;True;Non Renseigné;False;False;;;;;;;False;False;dpt;moteur;NR;True
1388;Ecole élémentaire du Centre;56290;Port-Louis;4;Rue de la Citadelle;;56181;Non Renseigné;École élémentaire;Non Renseigné;Non Renseigné;-3.35669640426662;47.7068166340829;True;False;False;True;False;True;False;True;;;;;;;;;;;;;False;True;True;False;False;False;False;FAUX;False;False;False;;;;;;False;;;False;Non Renseigné;True;Non Renseigné;False;False;;;;;;;False;False;dpt;moteur;NR;False
3350;Boucherie;56590;Groix;17;Rue du Presbytère;;56069;Non Renseigné;Commerce;Non Renseigné;Non Renseigné;-3.45625063137905;47.6389000133698;True;False;False;True;False;True;False;True;;;;;;;;;;;;;False;True;True;False;False;False;False;FAUX;False;False;False;;;;;;False;;;False;Non Renseigné;True;Non Renseigné;False;False;;;;;;;False;False;dpt;moteur;NR;False
2267;Toilettes publiques;56700;Hennebont;5;Rue Maréchal Joffre;;56083;Non Renseigné;Toilettes publiques;Non Renseigné;Non Renseigné;-3.27792703701175;47.8057617283735;True;False;False;True;False;True;False;True;;;;;;;;;;;;;False;True;True;False;False;False;False;FAUX;False;False;False;;;;;;False;;;False;Non Renseigné;True;Non Renseigné;False;False;;;;;;;False;False;dpt;moteur;NR;True
1178;Camping de La Plage;56520;Guidel;9999;Lieu-dit la Falaise;LA FALAISE;56078;Non Renseigné;Camping caravaning;Non Renseigné;Non Renseigné;-3.50087904063254;47.7417984909291;False;False;False;True;False;True;False;True;;;;;;;;;;;;;False;True;True;False;False;False;False;FAUX;False;False;False;;;;;;False;;;False;Non Renseigné;True;Non Renseigné;False;False;;;;;;;False;False;dpt;moteur;NR;True
3069;Bar tabac;56260;Larmor-Plage;5;Place du Commerce;;56107;Non Renseigné;Commerce;Non Renseigné;Non Renseigné;-3.36889615316481;47.7168696520173;True;False;False;True;False;True;False;True;;;;;;;;;;;;;False;True;True;False;False;False;False;FAUX;False;False;False;;;;;;False;;;False;Non Renseigné;True;Non Renseigné;False;False;;;;;;;False;False;dpt;moteur;NR;False
3693;Location de matériel de loisirs;56520;Guidel;1;Place du Bas Pouldu;;56078;Non Renseigné;Commerce;Non Renseigné;Non Renseigné;-3.5259625251233;47.7720661351252;True;False;False;True;False;True;False;True;;;;;;;;;;;;;False;True;True;False;False;False;False;FAUX;False;False;False;;;;;;False;;;False;Non Renseigné;True;Non Renseigné;False;False;;;;;;;False;False;dpt;moteur;NR;False
1573;Multi-accueil Anne Frank;56100;Lorient;82;Avenue du Général de Gaulle;;56121;Non Renseigné;Crèche;Non Renseigné;Non Renseigné;-3.3745762849045;47.7405600058134;True;False;False;True;True;True;False;True;;;;;;;;;;;;;False;True;True;False;False;False;False;FAUX;False;False;False;;;;;;False;;;False;Non Renseigné;True;Non Renseigné;False;False;;;;;;;False;False;dpt;moteur;NR;True
3723;Institut de beauté;56650;Inzinzac-Lochrist;5;Mail François Giovannelli;;56090;Non Renseigné;Commerce;Non Renseigné;Non Renseigné;-3.25194799990011;47.8253157514154;True;False;False;True;False;True;False;True;;;;;;;;;;;;;False;True;True;False;False;False;False;FAUX;False;False;False;;;;;;False;;;False;Non Renseigné;True;Non Renseigné;False;False;;;;;;;False;False;dpt;moteur;NR;False
3303;Opticien;56240;Plouay;11;Rue Paul Ihuel;;56166;Non Renseigné;Commerce;Non Renseigné;Non Renseigné;-3.33488055928343;47.9140001442175;True;False;False;True;False;True;False;True;;;;;;;;;;;;;False;True;True;False;False;False;False;FAUX;False;False;False;;;;;;False;;;False;Non Renseigné;True;Non Renseigné;False;False;;;;;;;False;False;dpt;moteur;NR;False
1210;Ecole Notre-Dame des Victoires;56520;Guidel;6;Rue Joseph Léna;;56078;Non Renseigné;Groupe scolaire;Non Renseigné;Non Renseigné;-3.48878494678479;47.7877394182586;True;False;False;True;False;True;False;True;;;;;;;;;;;;;False;True;True;False;False;False;False;FAUX;False;False;False;;;;;;False;;;False;Non Renseigné;True;Non Renseigné;False;False;;;;;;;False;False;dpt;moteur;NR;True
1961;Résidence Louis Aragon;56600;Lanester;1;Rue Louis Aragon;;56098;Non Renseigné;EHPAD;Non Renseigné;Non Renseigné;-3.34687376217973;47.764067515031;True;False;False;True;False;True;False;True;;;;;;;;;;;;;False;True;True;False;False;False;False;FAUX;False;False;False;;;;;;False;;;False;Non Renseigné;True;Non Renseigné;False;False;;;;;;;False;False;dpt;moteur;NR;False
3561;Le Transat Café;56570;Locmiquélic;42;Grande Rue;;56118;Non Renseigné;Café, bar, brasserie;Non Renseigné;Non Renseigné;-3.3426257041648;47.7235513107412;True;False;False;True;False;True;False;True;;;;;;;;;;;;;False;True;True;False;False;False;False;FAUX;False;False;False;;;;;;False;;;False;Non Renseigné;True;Non Renseigné;False;False;;;;;;;False;False;dpt;moteur;NR;False
2866;Institut de beauté;56100;Lorient;6;Rue du Maréchal Foch;;56121;Non Renseigné;Commerce;Non Renseigné;Non Renseigné;-3.36065890948754;47.7512703495413;True;False;False;True;True;True;False;True;;;;;;;;;;;;;False;True;True;False;False;False;False;FAUX;False;False;False;;;;;;False;;;False;Non Renseigné;True;Non Renseigné;False;False;;;;;;;False;False;dpt;moteur;NR;True
1125;Hôtel;56270;Ploemeur;10;Rue Duguay Trouin;;56162;Non Renseigné;Hôtel;Non Renseigné;Non Renseigné;-3.47484967514704;47.7105476126948;False;False;False;True;False;True;False;True;;;;;;;;;;;;;False;True;True;False;False;False;False;FAUX;False;False;False;;;;;;False;;;False;Non Renseigné;True;Non Renseigné;False;False;;;;;;;False;False;dpt;moteur;NR;False
3569;Salon de coiffure;56290;Port-Louis;17;Grande Rue;;56181;Non Renseigné;Commerce;Non Renseigné;Non Renseigné;-3.35417466370389;47.7073419499631;True;False;False;True;False;True;False;True;;;;;;;;;;;;;False;True;True;False;False;False;False;FAUX;False;False;False;;;;;;False;;;False;Non Renseigné;True;Non Renseigné;False;False;;;;;;;False;False;dpt;moteur;NR;False
2534;Chapelle de Lambézegan;56440;Languidic;6;Impasse des Chevreaux;LAMBEZEGAN;56101;Non Renseigné;Centre religieux;Non Renseigné;Non Renseigné;-3.10907165256911;47.8735055908403;True;False;False;True;False;True;False;True;;;;;;;;;;;;;False;True;True;False;False;False;False;FAUX;False;False;False;;;;;;False;;;False;Non Renseigné;True;Non Renseigné;False;False;;;;;;;False;False;dpt;moteur;NR;False
2851;Caisse d’Epargne;56100;Lorient;9;Rue Paul Guieysse;;56121;Non Renseigné;Banques, caisses d'épargne;Non Renseigné;Non Renseigné;-3.365406853258;47.7569448241042;True;False;False;True;True;True;False;True;;;;;;;;;;;;;False;True;True;False;False;False;False;FAUX;False;False;False;;;;;;False;;;False;Non Renseigné;True;Non Renseigné;False;False;;;;;;;False;False;dpt;moteur;NR;True
3706;Crêperie;56240;Inguiniel;30;Rue Louis le Moenic;LE BOURG;56089;Non Renseigné;Commerce;Non Renseigné;Non Renseigné;-3.28357785314019;47.9743646529596;False;False;False;True;False;True;False;True;;;;;;;;;;;;;False;True;True;False;False;False;False;FAUX;False;False;False;;;;;;False;;;False;Non Renseigné;True;Non Renseigné;False;False;;;;;;;False;False;dpt;moteur;NR;False
2977;Bar tabac de la Place;56620;Cléguer;17;Rue Félix le Gleut;LE BOURG;56040;Non Renseigné;Commerce;Non Renseigné;Non Renseigné;-3.38399519964983;47.8537913694256;True;False;False;True;False;True;False;True;;;;;;;;;;;;;False;True;True;False;False;False;False;FAUX;False;False;False;;;;;;False;;;False;Non Renseigné;True;Non Renseigné;False;False;;;;;;;False;False;dpt;moteur;NR;False
2420;Salle communale Le Ruyet;56650;Inzinzac-Lochrist;25;Rue Joseph Jegousse;;56090;Non Renseigné;Salle des fêtes;Non Renseigné;Non Renseigné;-3.2659500514843;47.8439663168702;True;False;False;True;False;True;False;True;;;;;;;;;;;;;False;True;True;False;False;False;False;FAUX;False;False;False;;;;;;False;;;False;Non Renseigné;True;Non Renseigné;False;False;;;;;;;False;False;dpt;moteur;NR;False
3650;Fleuriste;56310;Bubry;2;Place Maréchal Franchet d'Esperey;LE BOURG;56026;Non Renseigné;Commerce;Non Renseigné;Non Renseigné;-3.17332349845738;47.9633383287812;True;False;False;True;False;True;False;True;;;;;;;;;;;;;False;True;True;False;False;False;False;FAUX;False;False;False;;;;;;False;;;False;Non Renseigné;True;Non Renseigné;False;False;;;;;;;False;False;dpt;moteur;NR;False
2766;Garage;56530;Quéven;21;Rue Joliot Curie;Z.A.C   LE   MOURILLON;56185;Non Renseigné;Commerce;Non Renseigné;Non Renseigné;-3.41863247140119;47.7829170318998;False;False;False;True;False;True;False;True;;;;;;;;;;;;;False;True;True;False;False;False;False;FAUX;False;False;False;;;;;;False;;;False;Non Renseigné;True;Non Renseigné;False;False;;;;;;;False;False;dpt;moteur;NR;True
3391;Pompes funèbres;56100;Lorient;12;Boulevard Général Leclerc;;56121;Non Renseigné;Entreprise;Non Renseigné;Non Renseigné;-3.36649915047135;47.7497551240052;False;False;False;True;True;True;False;True;;;;;;;;;;;;;False;True;True;False;False;False;False;FAUX;False;False;False;;;;;;False;;;False;Non Renseigné;True;Non Renseigné;False;False;;;;;;;False;False;dpt;moteur;NR;False
1744;Société de gestion d'habitations;56100;Lorient;52;Cours Louis de Chazelles;Z.A.C   LE   MOURILLON;56121;Non Renseigné;Commerce;Non Renseigné;Non Renseigné;-3.361276905236194;47.75248729825679;True;False;False;True;True;True;False;True;;;;;;;;;;;;;False;True;True;False;False;False;False;FAUX;False;False;False;;;;;;False;;;False;Non Renseigné;True;Non Renseigné;False;False;;;;;;;False;False;dpt;moteur;NR;True
2698;Anesthésiste;56270;Ploemeur;10;Allée de la Clinique du Ter;KERBERNES;56162;Non Renseigné;Profession libérale de santé;Non Renseigné;Non Renseigné;-3.3992766360587;47.7362605918826;True;False;False;True;False;True;False;True;;;;;;;;;;;;;False;True;True;False;False;False;False;FAUX;False;False;False;;;;;;False;;;False;Non Renseigné;True;Non Renseigné;False;False;;;;;;;False;False;dpt;moteur;NR;True
1592;Multi-accueil Jeanne Roux;56100;Lorient;10;Rue Amiral Bouvet;;56121;Non Renseigné;Crèche;Non Renseigné;Non Renseigné;-3.37431652229246;47.7494549960764;True;False;False;True;True;True;False;True;;;;;;;;;;;;;False;True;True;False;False;False;False;FAUX;False;False;False;;;;;;False;;;False;Non Renseigné;True;Non Renseigné;False;False;;;;;;;False;False;dpt;moteur;NR;False
2763;Pharmacie;56520;Guidel;22;Rue de l'Océan;;56078;Non Renseigné;Commerce;Non Renseigné;Non Renseigné;-3.49141652680273;47.7868178152065;True;False;False;True;False;True;False;True;;;;;;;;;;;;;False;True;True;False;False;False;False;FAUX;False;False;False;;;;;;False;;;False;Non Renseigné;True;Non Renseigné;False;False;;;;;;;False;False;dpt;moteur;NR;True
1308;Poste;56530;Quéven;9999;Non concerné;;56185;Non Renseigné;Poste;Non Renseigné;Non Renseigné;-3.41944768032904;47.7898268013129;True;False;False;True;False;True;False;True;;;;;;;;;;;;;False;True;True;False;False;False;False;FAUX;False;False;False;;;;;;False;;;False;Non Renseigné;True;Non Renseigné;False;False;;;;;;;False;False;dpt;moteur;NR;True
1887;Centre nautique de Lorient;56100;Lorient;9001;Quai Eric Tabarly;;56121;Non Renseigné;Base nautique;Non Renseigné;Non Renseigné;-3.3534353784991;47.7425968031734;True;False;False;True;True;True;False;True;;;;;;;;;;;;;False;True;True;False;False;False;False;FAUX;False;False;False;;;;;;False;;;False;Non Renseigné;True;Non Renseigné;False;False;;;;;;;False;False;dpt;moteur;NR;True
1964;Toilettes publiques;56600;Lanester;6;Place du Souvenir Français;;56098;Non Renseigné;Toilettes publiques;Non Renseigné;Non Renseigné;-3.34435950308538;47.7636728367951;True;False;False;True;False;True;False;True;;;;;;;;;;;;;False;True;True;False;False;False;False;FAUX;False;False;False;;;;;;False;;;False;Non Renseigné;True;Non Renseigné;False;False;;;;;;;False;False;dpt;moteur;NR;False
3632;Institut Thérapeutique Éducatif et Pédagogique;56530;Quéven;6840;Impasse Per Jakez Helias;BEG      RUNIO;56185;Non Renseigné;Service ou aide à domicile;Non Renseigné;Non Renseigné;-3.41238683331183;47.780898794732;True;False;False;True;False;True;False;True;;;;;;;;;;;;;False;True;True;False;False;False;False;FAUX;False;False;False;;;;;;False;;;False;Non Renseigné;True;Non Renseigné;False;False;;;;;;;False;False;dpt;moteur;NR;False
1207;Espace Avalon;56520;Guidel;11;Place Louis le Montagner;;56078;Non Renseigné;Bibliothèque médiathèque;Non Renseigné;Non Renseigné;-3.4929989767099;47.792513038303;True;False;False;True;False;True;False;True;;;;;;;;;;;;;False;True;True;False;False;False;False;FAUX;False;False;False;;;;;;False;;;False;Non Renseigné;True;Non Renseigné;False;False;;;;;;;False;False;dpt;moteur;NR;False
3439;Ostéopathe;56700;Hennebont;32;Rue du Four;;56083;Non Renseigné;Profession libérale de santé;Non Renseigné;Non Renseigné;-3.27815055384988;47.8079367429162;False;False;False;True;False;True;False;True;;;;;;;;;;;;;False;True;True;False;False;False;False;FAUX;False;False;False;;;;;;False;;;False;Non Renseigné;True;Non Renseigné;False;False;;;;;;;False;False;dpt;moteur;NR;False
1437;Toilettes publiques;56670;Riantec;2;Ruelle de la Paix;;56193;Non Renseigné;Toilettes publiques;Non Renseigné;Non Renseigné;-3.31043638659307;47.7104271962665;True;False;False;True;False;True;False;True;;;;;;;;;;;;;False;True;True;False;False;False;False;FAUX;False;False;False;;;;;;False;;;False;Non Renseigné;True;Non Renseigné;False;False;;;;;;;False;False;dpt;moteur;NR;True
2517;Salle Jo Huitel;56440;Languidic;1;Rue Anne de Bretagne;;56101;Non Renseigné;Salle des fêtes;Non Renseigné;Non Renseigné;-3.15475466431405;47.8305995342473;True;False;False;True;False;True;False;True;;;;;;;;;;;;;False;True;True;False;False;False;False;FAUX;False;False;False;;;;;;False;;;False;Non Renseigné;True;Non Renseigné;False;False;;;;;;;False;False;dpt;moteur;NR;False
